{"type":"FeatureCollection","features":[{"type":"Feature","geometry":{"coordinates":[-76.934723,-12.038774],"type":"Point"},"properties":{"name":"AGENCIA HUAYCAN","address":"AV. 15 DE JULIO LT. 23 ZONA B - HUAYCÁN","descript":null,"url":null,"phone":"","nameDistrict":"ATE","nameCity":"LIMA","latitude":"-12.038774","longitude":"-76.934723","_l":[-76.934723,-12.038774]}},{"type":"Feature","geometry":{"coordinates":[-76.929219,-12.034588],"type":"Point"},"properties":{"name":"AGENCIA ATE","address":"AV. NICOLÁS AYLLÓN 5574 - URB. BARBADILLO","descript":null,"url":null,"phone":"","nameDistrict":"ATE","nameCity":"LIMA","latitude":"-12.034588","longitude":"-76.929219","_l":[-76.929219,-12.034588]}},{"type":"Feature","geometry":{"coordinates":[-76.933232,-12.039394],"type":"Point"},"properties":{"name":"HIPERMERCADO CERAMICO ATE","address":"AV. NICOLÁS AYLLÓN 4186","descript":null,"url":null,"phone":"","nameDistrict":"ATE","nameCity":"LIMA","latitude":"-12.039394","longitude":"-76.933232","_l":[-76.933232,-12.039394]}},{"type":"Feature","geometry":{"coordinates":[-76.930582,-12.036424],"type":"Point"},"properties":{"name":"AGENCIA CERES","address":"AV. NICOLÁS AYLLÓN 5394 ALT. KM 6,5 CARRETERA CENTRAL","descript":null,"url":null,"phone":"6133956","nameDistrict":"ATE","nameCity":"LIMA","latitude":"-12.036424","longitude":"-76.930582","_l":[-76.930582,-12.036424]}},{"type":"Feature","geometry":{"coordinates":[-76.983942,-12.063736],"type":"Point"},"properties":{"name":"CARRETERA CENTRAL","address":"AV. NICOLÁS AYLLÓN 2032-2036","descript":null,"url":null,"phone":"3261002","nameDistrict":"ATE","nameCity":"LIMA","latitude":"-12.063736","longitude":"-76.983942","_l":[-76.983942,-12.063736]}},{"type":"Feature","geometry":{"coordinates":[-76.925404,-12.036123],"type":"Point"},"properties":{"name":"VITARTE","address":"AV. PROGRESO 102","descript":null,"url":null,"phone":"4941909","nameDistrict":"ATE","nameCity":"LIMA","latitude":"-12.036123","longitude":"-76.925404","_l":[-76.925404,-12.036123]}},{"type":"Feature","geometry":{"coordinates":[-76.988053,-12.076132],"type":"Point"},"properties":{"name":"SALAMANCA","address":"AV. LOS PARACAS 203","descript":null,"url":null,"phone":"4361469","nameDistrict":"ATE","nameCity":"LIMA","latitude":"-12.076132","longitude":"-76.988053","_l":[-76.988053,-12.076132]}},{"type":"Feature","geometry":{"coordinates":[-76.930936,-12.036865],"type":"Point"},"properties":{"name":"CERES","address":"AV. NICOLÁS AYLLÓN 5345 URB. LOS ÁNGELES","descript":null,"url":null,"phone":"3519009","nameDistrict":"ATE","nameCity":"LIMA","latitude":"-12.036865","longitude":"-76.930936","_l":[-76.930936,-12.036865]}},{"type":"Feature","geometry":{"coordinates":[-76.943991,-12.046924],"type":"Point"},"properties":{"name":"BACKUS","address":"INSTALACIONES PLANTA DE BACKUS. AV NICOLÁS AYLLÓN 3986 CON AV. ASTURIAS 662-652- 644- 604","descript":null,"url":null,"phone":"3520217","nameDistrict":"ATE","nameCity":"LIMA","latitude":"-12.046924","longitude":"-76.943991","_l":[-76.943991,-12.046924]}},{"type":"Feature","geometry":{"coordinates":[-76.823167,-12.011247],"type":"Point"},"properties":{"name":"HUAYCAN","address":"AV. 15 DE JULIO LT. 33 PROGRAMA ESPECIAL HUAYCÁN","descript":null,"url":null,"phone":"3717200","nameDistrict":"ATE","nameCity":"LIMA","latitude":"-12.011247","longitude":"-76.823167","_l":[-76.823167,-12.011247]}},{"type":"Feature","geometry":{"coordinates":[-76.863836,-12.00911],"type":"Point"},"properties":{"name":"REAL PLAZA SANTA CLARA","address":"AV. NICOLÁS AYLLÓN 8694 TDA LC 105","descript":null,"url":null,"phone":"6223846","nameDistrict":"ATE","nameCity":"LIMA","latitude":"-12.00911","longitude":"-76.863836","_l":[-76.863836,-12.00911]}},{"type":"Feature","geometry":{"coordinates":[-76.981952,-12.063012],"type":"Point"},"properties":{"name":"NICOLAS AYLLÓN","address":"AV. NICOLÁS AYLLÓN 2096","descript":null,"url":null,"phone":"3260496","nameDistrict":"ATE","nameCity":"LIMA","latitude":"-12.063012","longitude":"-76.981952","_l":[-76.981952,-12.063012]}},{"type":"Feature","geometry":{"coordinates":[-76.928436,-12.033675],"type":"Point"},"properties":{"name":"CERES","address":"CARRETERA CENTRAL KM 5,6","descript":null,"url":null,"phone":"3516400","nameDistrict":"ATE","nameCity":"LIMA","latitude":"-12.033675","longitude":"-76.928436","_l":[-76.928436,-12.033675]}},{"type":"Feature","geometry":{"coordinates":[-76.930689,-12.036246],"type":"Point"},"properties":{"name":"PURUCHUCO","address":"AV. VÍCTOR RAÚL HAYA DE LA TORRE 4485","descript":null,"url":null,"phone":"3518335","nameDistrict":"ATE","nameCity":"LIMA","latitude":"-12.036246","longitude":"-76.930689","_l":[-76.930689,-12.036246]}},{"type":"Feature","geometry":{"coordinates":[-76.82398,-12.012258],"type":"Point"},"properties":{"name":"HUAYCÁN","address":"AV. 15 DE JULIO LT. 14 ZONA B - HUAYCÁN","descript":null,"url":null,"phone":"3716009","nameDistrict":"ATE","nameCity":"LIMA","latitude":"-12.012258","longitude":"-76.823980","_l":[-76.82398,-12.012258]}},{"type":"Feature","geometry":{"coordinates":[-76.919724,-12.03633],"type":"Point"},"properties":{"name":"VITARTE","address":"SUB LT. 2, MZ. C LT. 5 HABILITACIÓN PRE URBANA, URB. BARBADILLO","descript":null,"url":null,"phone":"4625462","nameDistrict":"ATE","nameCity":"LIMA","latitude":"-12.036330","longitude":"-76.919724","_l":[-76.919724,-12.03633]}},{"type":"Feature","geometry":{"coordinates":[-76.925856,-12.03029],"type":"Point"},"properties":{"name":"AG. CARSA ATE","address":"C.C. LAS BRISAS CARRET. CENTRAL KM 6,5","descript":null,"url":null,"phone":"6122000 / 3412","nameDistrict":"ATE","nameCity":"LIMA","latitude":"-12.03029","longitude":"-76.925856","_l":[-76.925856,-12.03029]}},{"type":"Feature","geometry":{"coordinates":[-76.824404,-12.013743],"type":"Point"},"properties":{"name":"AG. CARSA HUAYCAN","address":"AV. JOSÉ CARLOS MARIÁTEGUI, ZONA F, LT. 8","descript":null,"url":null,"phone":"6122000 / 3516 - 3517","nameDistrict":"ATE","nameCity":"LIMA","latitude":"-12.013743","longitude":"-76.824404","_l":[-76.824404,-12.013743]}},{"type":"Feature","geometry":{"coordinates":[-76.960387,-12.047589],"type":"Point"},"properties":{"name":"TIENDA INTERBANK EN PLAZA VEA ATE","address":"AV. LA MAR C/ NICOLÁS AYLLÓN","descript":null,"url":null,"phone":"2192128","nameDistrict":"ATE","nameCity":"LIMA","latitude":"-12.047589","longitude":"-76.960387","_l":[-76.960387,-12.047589]}},{"type":"Feature","geometry":{"coordinates":[-76.983776,-12.073525],"type":"Point"},"properties":{"name":"TIENDA INTERBANK EN MM SALAMANCA","address":"AV. CIRCUNVALACIÓN 2769 C.C. LOS RECAUDADORES","descript":null,"url":null,"phone":"2192136","nameDistrict":"ATE","nameCity":"LIMA","latitude":"-12.073525","longitude":"-76.983776","_l":[-76.983776,-12.073525]}},{"type":"Feature","geometry":{"coordinates":[-76.824389,-12.01506],"type":"Point"},"properties":{"name":"HUAYCAN","address":"AV. 15 DE JULIO LT.16 - PROYECTO ESPECIAL HUAYCÁN","descript":null,"url":null,"phone":"2192237","nameDistrict":"ATE","nameCity":"LIMA","latitude":"-12.01506","longitude":"-76.824389","_l":[-76.824389,-12.01506]}},{"type":"Feature","geometry":{"coordinates":[-76.925046,-12.029772],"type":"Point"},"properties":{"name":"ATE","address":"LT.16 MZ.C - ASOC. PRO-VIVIENDA PORVENIR VITARTE","descript":null,"url":null,"phone":"2192238","nameDistrict":"ATE","nameCity":"LIMA","latitude":"-12.029772","longitude":"-76.925046","_l":[-76.925046,-12.029772]}},{"type":"Feature","geometry":{"coordinates":[-76.9451,-12.0351],"type":"Point"},"properties":{"name":"MM SANTA CLARA","address":"CARRETERA CENTRAL KM 10,3 CRUCE CON AV. LA ESTRELLA, URB. SANTA CLARA","descript":null,"url":null,"phone":"2192000 / 649501","nameDistrict":"ATE","nameCity":"LIMA","latitude":"-12.0351","longitude":"-76.9451","_l":[-76.9451,-12.0351]}},{"type":"Feature","geometry":{"coordinates":[-76.920572,-12.026025],"type":"Point"},"properties":{"name":"ATE","address":"CARRETERA CENTRAL KM 7,5 (AV. HAYA DE LA TORRE S/N) C.C. PLAZA VITARTE LOCALES C-101 Y 104","descript":null,"url":null,"phone":"4941500","nameDistrict":"ATE","nameCity":"LIMA","latitude":"-12.026025","longitude":"-76.920572","_l":[-76.920572,-12.026025]}},{"type":"Feature","geometry":{"coordinates":[-76.95174,-12.060253],"type":"Point"},"properties":{"name":"GRIFO GRACO","address":"AVENIDA SEPARADORA INDUSTRIAL 2503","descript":null,"url":null,"phone":"3401882","nameDistrict":"ATE","nameCity":"LIMA","latitude":"-12.060253","longitude":"-76.95174","_l":[-76.95174,-12.060253]}},{"type":"Feature","geometry":{"coordinates":[-76.869195,-12.014367],"type":"Point"},"properties":{"name":"AGENCIA PARCELAS","address":"PARCELAS 10564-10565 DEL EX FUNDO PARIACHI","descript":null,"url":null,"phone":"","nameDistrict":"ATE","nameCity":"LIMA","latitude":"-12.014367","longitude":"-76.869195","_l":[-76.869195,-12.014367]}},{"type":"Feature","geometry":{"coordinates":[-76.926125,-12.0274],"type":"Point"},"properties":{"name":"AG. CERES SBP","address":"C. CENTRAL MZ E LT22 - CERES","descript":null,"url":null,"phone":"","nameDistrict":"ATE","nameCity":"LIMA","latitude":"-12.0274","longitude":"-76.926125","_l":[-76.926125,-12.0274]}},{"type":"Feature","geometry":{"coordinates":[-76.918031,-12.02675],"type":"Point"},"properties":{"name":"CAFAE ATE","address":"AV. JOSÉ CARLOS MARIATEGUI 328 - PISO 2","descript":null,"url":null,"phone":"","nameDistrict":"ATE","nameCity":"LIMA","latitude":"-12.02675","longitude":"-76.918031","_l":[-76.918031,-12.02675]}},{"type":"Feature","geometry":{"coordinates":[-76.985904,-12.035837],"type":"Point"},"properties":{"name":"SEDAPAL","address":"KM. 1 AUTOPISTA RAMIRO PRIALÉ (AL INTERIOR DE LA ATARJEA SEDAPAL)","descript":null,"url":null,"phone":"","nameDistrict":"ATE","nameCity":"LIMA","latitude":"-12.035837","longitude":"-76.985904","_l":[-76.985904,-12.035837]}},{"type":"Feature","geometry":{"coordinates":[-77.015175,-12.143333],"type":"Point"},"properties":{"name":"PLAZA BUTTERS","address":"PLAZA BUTTERS 301","descript":null,"url":null,"phone":"6223096","nameDistrict":"BARRANCO","nameCity":"LIMA","latitude":"-12.143333","longitude":"-77.015175","_l":[-77.015175,-12.143333]}},{"type":"Feature","geometry":{"coordinates":[-77.021702,-12.14578],"type":"Point"},"properties":{"name":"AGENCIA BARRANCO","address":"AV. ALMIRANTE GRAU 608","descript":null,"url":null,"phone":"","nameDistrict":"BARRANCO","nameCity":"LIMA","latitude":"-12.145780","longitude":"-77.021702","_l":[-77.021702,-12.14578]}},{"type":"Feature","geometry":{"coordinates":[-77.021305,-12.147635],"type":"Point"},"properties":{"name":"BARRANCO","address":"JR. UNIÓN 102","descript":null,"url":null,"phone":"4770280","nameDistrict":"BARRANCO","nameCity":"LIMA","latitude":"-12.147635","longitude":"-77.021305","_l":[-77.021305,-12.147635]}},{"type":"Feature","geometry":{"coordinates":[-77.015753,-12.143074],"type":"Point"},"properties":{"name":"TEJADA","address":"PARQUE BUTTERS 289","descript":null,"url":null,"phone":"4770908","nameDistrict":"BARRANCO","nameCity":"LIMA","latitude":"-12.143074","longitude":"-77.015753","_l":[-77.015753,-12.143074]}},{"type":"Feature","geometry":{"coordinates":[-77.021871,-12.145961],"type":"Point"},"properties":{"name":"BARRANCO","address":"AV. JOSÉ M. EGUREN 599 (EX GRAU)","descript":null,"url":null,"phone":"4770101","nameDistrict":"BARRANCO","nameCity":"LIMA","latitude":"-12.145961","longitude":"-77.021871","_l":[-77.021871,-12.145961]}},{"type":"Feature","geometry":{"coordinates":[-77.020978,-12.148885],"type":"Point"},"properties":{"name":"TIENDA BARRANCO","address":"AV. GRAU 300","descript":null,"url":null,"phone":"4774075","nameDistrict":"BARRANCO","nameCity":"LIMA","latitude":"-12.148885","longitude":"-77.020978","_l":[-77.020978,-12.148885]}},{"type":"Feature","geometry":{"coordinates":[-77.018076,-12.133687],"type":"Point"},"properties":{"name":"TIENDA INTERBANK EN PLAZA VEA CORTIJO","address":"AV. REPÚBLICA DE PANAMÁ 515","descript":null,"url":null,"phone":"2192132","nameDistrict":"BARRANCO","nameCity":"LIMA","latitude":"-12.133687","longitude":"-77.018076","_l":[-77.018076,-12.133687]}},{"type":"Feature","geometry":{"coordinates":[-77.021415,-12.147073],"type":"Point"},"properties":{"name":"BARRANCO","address":"AV. GRAU 422","descript":null,"url":null,"phone":"4774337","nameDistrict":"BARRANCO","nameCity":"LIMA","latitude":"-12.147073","longitude":"-77.021415","_l":[-77.021415,-12.147073]}},{"type":"Feature","geometry":{"coordinates":[-77.019857,-12.15135],"type":"Point"},"properties":{"name":"BARRANCO","address":"AVENIDA GRAÚ 101","descript":null,"url":null,"phone":"4673773","nameDistrict":"BARRANCO","nameCity":"LIMA","latitude":"-12.15135","longitude":"-77.019857","_l":[-77.019857,-12.15135]}},{"type":"Feature","geometry":{"coordinates":[-77.0217,-12.146048],"type":"Point"},"properties":{"name":"AGENCIA BARRANCO","address":"AV. GRAU N° 563","descript":null,"url":null,"phone":"613-3000/Anexo 4860","nameDistrict":"BARRANCO","nameCity":"LIMA","latitude":"-12.146048","longitude":"-77.0217","_l":[-77.0217,-12.146048]}},{"type":"Feature","geometry":{"coordinates":[-77.050015,-12.055017],"type":"Point"},"properties":{"name":"AGENCIA BREÑA","address":"AV. VENEZUELA 1130","descript":null,"url":null,"phone":"","nameDistrict":"BRE&Ntilde;A","nameCity":"LIMA","latitude":"-12.055017","longitude":"-77.050015","_l":[-77.050015,-12.055017]}},{"type":"Feature","geometry":{"coordinates":[-77.043653,-12.053506],"type":"Point"},"properties":{"name":"AGENCIA BREÑA","address":"AV. VENEZUELA 785","descript":null,"url":null,"phone":"6133389","nameDistrict":"BRE&Ntilde;A","nameCity":"LIMA","latitude":"-12.053506","longitude":"-77.043653","_l":[-77.043653,-12.053506]}},{"type":"Feature","geometry":{"coordinates":[-77.043995,-12.059314],"type":"Point"},"properties":{"name":"PLAZA BOLOGNESI","address":"AV. ARICA 350","descript":null,"url":null,"phone":"4241825","nameDistrict":"BRE&Ntilde;A","nameCity":"LIMA","latitude":"-12.059314","longitude":"-77.043995","_l":[-77.043995,-12.059314]}},{"type":"Feature","geometry":{"coordinates":[-77.042976,-12.054702],"type":"Point"},"properties":{"name":"VENEZUELA 1","address":"AV. VENEZUELA 635","descript":null,"url":null,"phone":"4241556","nameDistrict":"BRE&Ntilde;A","nameCity":"LIMA","latitude":"-12.054702","longitude":"-77.042976","_l":[-77.042976,-12.054702]}},{"type":"Feature","geometry":{"coordinates":[-77.051964,-12.055186],"type":"Point"},"properties":{"name":"VENEZUELA 3","address":"AV. VENEZUELA 1254","descript":null,"url":null,"phone":"4247716","nameDistrict":"BRE&Ntilde;A","nameCity":"LIMA","latitude":"-12.055186","longitude":"-77.051964","_l":[-77.051964,-12.055186]}},{"type":"Feature","geometry":{"coordinates":[-77.049733,-12.065427],"type":"Point"},"properties":{"name":null,"address":"JR. HUARAZ 1600","descript":null,"url":null,"phone":"4312547","nameDistrict":"BRE&Ntilde;A","nameCity":"LIMA","latitude":"-12.065427","longitude":"-77.049733","_l":[-77.049733,-12.065427]}},{"type":"Feature","geometry":{"coordinates":[-77.051158,-12.055088],"type":"Point"},"properties":{"name":"VENEZUELA","address":"AV. VENEZUELA 1202","descript":null,"url":null,"phone":"4243677","nameDistrict":"BRE&Ntilde;A","nameCity":"LIMA","latitude":"-12.055088","longitude":"-77.051158","_l":[-77.051158,-12.055088]}},{"type":"Feature","geometry":{"coordinates":[-77.049849,-12.065782],"type":"Point"},"properties":{"name":"HUARAZ","address":"JR. HUARAZ 1635","descript":null,"url":null,"phone":"4233402","nameDistrict":"BRE&Ntilde;A","nameCity":"LIMA","latitude":"-12.065782","longitude":"-77.049849","_l":[-77.049849,-12.065782]}},{"type":"Feature","geometry":{"coordinates":[-77.042087,-12.056244],"type":"Point"},"properties":{"name":"ALFONSO UGARTE","address":"AV. ALFONSO UGARTE 1302","descript":null,"url":null,"phone":"4234033","nameDistrict":"BRE&Ntilde;A","nameCity":"LIMA","latitude":"-12.056244","longitude":"-77.042087","_l":[-77.042087,-12.056244]}},{"type":"Feature","geometry":{"coordinates":[-77.059583,-12.056008],"type":"Point"},"properties":{"name":"TIENDA VENEZUELA","address":"AV. VENEZUELA 1251","descript":null,"url":null,"phone":"4311842","nameDistrict":"BRE&Ntilde;A","nameCity":"LIMA","latitude":"-12.056008","longitude":"-77.059583","_l":[-77.059583,-12.056008]}},{"type":"Feature","geometry":{"coordinates":[-77.04381,-12.054096],"type":"Point"},"properties":{"name":"TIENDA BREÑA","address":"JR. IQUIQUE 380-382","descript":null,"url":null,"phone":"2192168","nameDistrict":"BRE&Ntilde;A","nameCity":"LIMA","latitude":"-12.054096","longitude":"-77.04381","_l":[-77.04381,-12.054096]}},{"type":"Feature","geometry":{"coordinates":[-77.04161,-12.054105],"type":"Point"},"properties":{"name":"MM VEA ALFONSO UGARTE","address":"AV. ALFONSO UGARTE 1103","descript":null,"url":null,"phone":"2192000 / 634501","nameDistrict":"BRE&Ntilde;A","nameCity":"LIMA","latitude":"-12.054105","longitude":"-77.04161","_l":[-77.04161,-12.054105]}},{"type":"Feature","geometry":{"coordinates":[-77.041958,-12.057755],"type":"Point"},"properties":{"name":"ALFONSO UGARTE","address":"AV. ALFONSO UGARTE 1286 -1292","descript":null,"url":null,"phone":"4233668","nameDistrict":"BRE&Ntilde;A","nameCity":"LIMA","latitude":"-12.057755","longitude":"-77.041958","_l":[-77.041958,-12.057755]}},{"type":"Feature","geometry":{"coordinates":[-77.05141,-12.055227],"type":"Point"},"properties":{"name":"VENEZUELA","address":"AV. VENEZUELA 1270","descript":null,"url":null,"phone":"4238479","nameDistrict":"BRE&Ntilde;A","nameCity":"LIMA","latitude":"-12.055227","longitude":"-77.051410","_l":[-77.05141,-12.055227]}},{"type":"Feature","geometry":{"coordinates":[-77.050499,-12.066191],"type":"Point"},"properties":{"name":"BREÑA","address":"ESQUINA JIRONES ORBEGOSO 298 CON HUARAZ S/N","descript":null,"url":null,"phone":"4316226","nameDistrict":"BRE&Ntilde;A","nameCity":"LIMA","latitude":"-12.066191","longitude":"-77.050499","_l":[-77.050499,-12.066191]}},{"type":"Feature","geometry":{"coordinates":[-77.044544,-12.058018],"type":"Point"},"properties":{"name":"EXTRANJERÍA","address":"ESQUINA AVENIDA ESPAÑA 734 CON JIRÓNHUARAZ S/N","descript":null,"url":null,"phone":"3326376","nameDistrict":"BRE&Ntilde;A","nameCity":"LIMA","latitude":"-12.058018","longitude":"-77.044544","_l":[-77.044544,-12.058018]}},{"type":"Feature","geometry":{"coordinates":[-77.060241,-12.05784],"type":"Point"},"properties":{"name":"MTC","address":"JIRÓN ANTENOR ORREGO 1923","descript":null,"url":null,"phone":"3377232","nameDistrict":"BRE&Ntilde;A","nameCity":"LIMA","latitude":"-12.05784","longitude":"-77.060241","_l":[-77.060241,-12.05784]}},{"type":"Feature","geometry":{"coordinates":[-77.036326,-12.079816],"type":"Point"},"properties":{"name":"ARENALES","address":"AV. ARENALES 797 -  SANTA BEATRIZ","descript":null,"url":null,"phone":"","nameDistrict":"ANDAJES","nameCity":"LIMA","latitude":"-12.079816","longitude":"-77.036326","_l":[-77.036326,-12.079816]}},{"type":"Feature","geometry":{"coordinates":[-77.010512,-12.121152],"type":"Point"},"properties":{"name":"AURORA","address":"CALLE ARIAS SCHEREIBER 160, URB. AURORA, MIRAFLORES","descript":null,"url":null,"phone":"4510118","nameDistrict":"BELLAVISTA","nameCity":"CALLAO","latitude":"-12.121152","longitude":"-77.010512","_l":[-77.010512,-12.121152]}},{"type":"Feature","geometry":{"coordinates":[-76.989505,-12.112887],"type":"Point"},"properties":{"name":"CHACARILLA","address":"CALLE MONTERREY 188 C.C. CAMINOS DEL INCA, SURCO","descript":null,"url":null,"phone":"6209989","nameDistrict":"BELLAVISTA","nameCity":"CALLAO","latitude":"-12.112887","longitude":"-76.989505","_l":[-76.989505,-12.112887]}},{"type":"Feature","geometry":{"coordinates":[-77.097415,-12.064617],"type":"Point"},"properties":{"name":"FAUCETT","address":"AV. ELMER FAUCETT 525, SAN MIGUEL","descript":null,"url":null,"phone":"6240525","nameDistrict":"BELLAVISTA","nameCity":"CALLAO","latitude":"-12.064617","longitude":"-77.097415","_l":[-77.097415,-12.064617]}},{"type":"Feature","geometry":{"coordinates":[-77.050306,-12.072992],"type":"Point"},"properties":{"name":"JESUS MARÍA","address":"AV. GENERAL GARZÓN 1299, JESÚS MARÍA","descript":null,"url":null,"phone":"6180000 / 5502","nameDistrict":"BELLAVISTA","nameCity":"CALLAO","latitude":"-12.072992","longitude":"-77.050306","_l":[-77.050306,-12.072992]}},{"type":"Feature","geometry":{"coordinates":[-76.976566,-12.086324],"type":"Point"},"properties":{"name":"JOCKEY PLAZA","address":"C.C. JOCKEY PLAZA, CENTRO FINANCIERO INTERIOR, NÚMERO CF-B11, SURCO","descript":null,"url":null,"phone":"2192000 / 653001","nameDistrict":"BELLAVISTA","nameCity":"CALLAO","latitude":"-12.086324","longitude":"-76.976566","_l":[-76.976566,-12.086324]}},{"type":"Feature","geometry":{"coordinates":[-77.029781,-12.048092],"type":"Point"},"properties":{"name":"LAMPA","address":"JR. LAMPA 560, CERCADO DE LIMA","descript":null,"url":null,"phone":"5138000 / 1561 - 1562","nameDistrict":"BELLAVISTA","nameCity":"CALLAO","latitude":"-12.048092","longitude":"-77.029781","_l":[-77.029781,-12.048092]}},{"type":"Feature","geometry":{"coordinates":[-77.029781,-12.048092],"type":"Point"},"properties":{"name":"MIRAFLORES","address":"AV. PASEO DE LA REPÚBLICA 4870, MIRAFLORES","descript":null,"url":null,"phone":"6115700 / 8916","nameDistrict":"BELLAVISTA","nameCity":"CALLAO","latitude":"-12.048092","longitude":"-77.029781","_l":[-77.029781,-12.048092]}},{"type":"Feature","geometry":{"coordinates":[-77.037999,-12.094884],"type":"Point"},"properties":{"name":"PASEO PRADO","address":"AV. JORGE BASADRE 536 - SAN ISIDRO","descript":null,"url":null,"phone":"4511260","nameDistrict":"BELLAVISTA","nameCity":"CALLAO","latitude":"-12.094884","longitude":"-77.037999","_l":[-77.037999,-12.094884]}},{"type":"Feature","geometry":{"coordinates":[-77.003916,-12.091022],"type":"Point"},"properties":{"name":"SAN BORJA","address":"CALLE MORELLI 201, SAN BORJA","descript":null,"url":null,"phone":"","nameDistrict":"SAN BORJA","nameCity":"LIMA","latitude":"-12.091022","longitude":"-77.003916","_l":[-77.003916,-12.091022]}},{"type":"Feature","geometry":{"coordinates":[-77.021184,-12.09742],"type":"Point"},"properties":{"name":"SAN ISIDRO","address":"AV. CANAVAL Y MOREYRA 454, SAN ISIDRO","descript":null,"url":null,"phone":"2192131","nameDistrict":"CALLAO CERCADO","nameCity":"CALLAO","latitude":"-12.097420","longitude":"-77.021184","_l":[-77.021184,-12.09742]}},{"type":"Feature","geometry":{"coordinates":[-76.96412,-12.054261],"type":"Point"},"properties":{"name":"SANTA ANITA","address":"CALLE LAS ALONDRAS 269, SANTA ANITA","descript":null,"url":null,"phone":"","nameDistrict":"CALLAO CERCADO","nameCity":"CALLAO","latitude":"-12.054261","longitude":"-76.964120","_l":[-76.96412,-12.054261]}},{"type":"Feature","geometry":{"coordinates":[-77.008709,-12.130299],"type":"Point"},"properties":{"name":"SIMÓN SALGUERO","address":"CALLE SIMÓN SALGUERO S/N CDRA. 5 ESQ. C/ SOR TITA","descript":null,"url":null,"phone":"","nameDistrict":"CALLAO CERCADO","nameCity":"CALLAO","latitude":"-12.130299","longitude":"-77.008709","_l":[-77.008709,-12.130299]}},{"type":"Feature","geometry":{"coordinates":[-76.935625,-12.198219],"type":"Point"},"properties":{"name":"VILLA EL SALVADOR","address":"JR. FORJADORES CDRA. 3 MZ. H LT. 1D, PARCELA II PQ. INDUSTRIAL, VILLA EL SALVADOR","descript":null,"url":null,"phone":"","nameDistrict":"CALLAO CERCADO","nameCity":"CALLAO","latitude":"-12.198219","longitude":"-76.935625","_l":[-76.935625,-12.198219]}},{"type":"Feature","geometry":{"coordinates":[-77.08688,-12.050809],"type":"Point"},"properties":{"name":"AGENCIA COLONIAL","address":"CALLE OMEGA 197 URB. PARQUE INTERNACIONAL DE INDUSTRIA Y COMERCIO","descript":null,"url":null,"phone":"6133860","nameDistrict":"CALLAO CERCADO","nameCity":"CALLAO","latitude":"-12.050809","longitude":"-77.086880","_l":[-77.08688,-12.050809]}},{"type":"Feature","geometry":{"coordinates":[-77.14091,-12.051072],"type":"Point"},"properties":{"name":"AGENCIA CALLAO","address":"AV. GUARDIA CHALACA 149","descript":null,"url":null,"phone":"6133790","nameDistrict":"CALLAO CERCADO","nameCity":"CALLAO","latitude":"-12.051072","longitude":"-77.140910","_l":[-77.14091,-12.051072]}},{"type":"Feature","geometry":{"coordinates":[-77.098606,-12.050757],"type":"Point"},"properties":{"name":"AGENCIA MAKRO","address":"AV. ELMER FAUCETT 365-375","descript":null,"url":null,"phone":"6133849","nameDistrict":"CALLAO CERCADO","nameCity":"CALLAO","latitude":"-12.050757","longitude":"-77.098606","_l":[-77.098606,-12.050757]}},{"type":"Feature","geometry":{"coordinates":[-77.110977,-12.049047],"type":"Point"},"properties":{"name":"AGENCIA MINKA","address":"AV. ARGENTINA 3093 LOCAL 17 Y 18","descript":null,"url":null,"phone":"6133938","nameDistrict":"CALLAO CERCADO","nameCity":"CALLAO","latitude":"-12.049047","longitude":"-77.110977","_l":[-77.110977,-12.049047]}},{"type":"Feature","geometry":{"coordinates":[-77.10323,-12.028638],"type":"Point"},"properties":{"name":"SAN BORJA","address":"AV. ELMER FAUCETT 2827-2831","descript":null,"url":null,"phone":"4844444","nameDistrict":"CALLAO CERCADO","nameCity":"CALLAO","latitude":"-12.028638","longitude":"-77.103230","_l":[-77.10323,-12.028638]}},{"type":"Feature","geometry":{"coordinates":[-77.13727,-12.037617],"type":"Point"},"properties":{"name":"CALLE MORELLI 201, SAN BORJA","address":"AV. CONTRALMIRANTE MORA S/N - BASE NAVAL","descript":null,"url":null,"phone":"4292771","nameDistrict":"CALLAO CERCADO","nameCity":"CALLAO","latitude":"-12.037617","longitude":"-77.13727","_l":[-77.13727,-12.037617]}},{"type":"Feature","geometry":{"coordinates":[-77.109913,-12.049356],"type":"Point"},"properties":{"name":"SAN ISIDRO","address":"CENTRO COMERCIAL MINKA PABELLÓN 4","descript":null,"url":null,"phone":"4291969","nameDistrict":"CALLAO CERCADO","nameCity":"CALLAO","latitude":"-12.049356","longitude":"-77.109913","_l":[-77.109913,-12.049356]}},{"type":"Feature","geometry":{"coordinates":[-77.143986,-12.061014],"type":"Point"},"properties":{"name":"AV. CANAVAL Y MOREYRA 454, SAN ISIDRO","address":"AV. SAENZ PEÑA 323","descript":null,"url":null,"phone":"4291142","nameDistrict":"CALLAO CERCADO","nameCity":"CALLAO","latitude":"-12.061014","longitude":"-77.143986","_l":[-77.143986,-12.061014]}},{"type":"Feature","geometry":{"coordinates":[-77.138324,-12.060191],"type":"Point"},"properties":{"name":"SANTA ANITA","address":"AV. SAENZ PEÑA 731","descript":null,"url":null,"phone":"4290515","nameDistrict":"CALLAO CERCADO","nameCity":"CALLAO","latitude":"-12.060191","longitude":"-77.138324","_l":[-77.138324,-12.060191]}},{"type":"Feature","geometry":{"coordinates":[-77.086996,-12.050693],"type":"Point"},"properties":{"name":"CALLE LAS ALONDRAS 269, SANTA ANITA","address":"CA. OMEGA 149 - PARQUE DE LA INDUSTRIA Y COMERCIO","descript":null,"url":null,"phone":"4648411","nameDistrict":"CALLAO CERCADO","nameCity":"CALLAO","latitude":"-12.050693","longitude":"-77.086996","_l":[-77.086996,-12.050693]}},{"type":"Feature","geometry":{"coordinates":[-77.145235,-12.056199],"type":"Point"},"properties":{"name":"SIMÓN SALGUERO","address":"TERMINAL MARÍTIMO DEL CALLAO","descript":null,"url":null,"phone":"4293509","nameDistrict":"CALLAO CERCADO","nameCity":"CALLAO","latitude":"-12.056199","longitude":"-77.145235","_l":[-77.145235,-12.056199]}},{"type":"Feature","geometry":{"coordinates":[-77.104257,-12.02408],"type":"Point"},"properties":{"name":"CALLE SIMÓN SALGUERO S/N CDRA. 5 ESQ. C / SOR TIT","address":"CENTRO AÉREO COMERCIAL LOCALES 110 A Y 111 A","descript":null,"url":null,"phone":"5753635","nameDistrict":"CALLAO CERCADO","nameCity":"CALLAO","latitude":"-12.02408","longitude":"-77.104257","_l":[-77.104257,-12.02408]}},{"type":"Feature","geometry":{"coordinates":[-77.118487,-12.050088],"type":"Point"},"properties":{"name":"VILLA EL SALVADOR","address":"CALLEJON VILLEGAS 405-407 Y CALLE UNO 107-111","descript":null,"url":null,"phone":"4650115","nameDistrict":"CALLAO CERCADO","nameCity":"CALLAO","latitude":"-12.050088","longitude":"-77.118487","_l":[-77.118487,-12.050088]}},{"type":"Feature","geometry":{"coordinates":[-77.057674,-12.002854],"type":"Point"},"properties":{"name":"JR. FORJADORES CDRA. 3 MZ. H LT. 1D, PARCELA II PQ","address":"AV. INDUSTRIAL 3515-3517, LOTES 73-74, PANAMERICANA NORTE MZ. F - SUB LOTE B","descript":null,"url":null,"phone":"5773343","nameDistrict":"CALLAO CERCADO","nameCity":"CALLAO","latitude":"-12.002854","longitude":"-77.057674","_l":[-77.057674,-12.002854]}},{"type":"Feature","geometry":{"coordinates":[-77.103358,-12.028064],"type":"Point"},"properties":{"name":"LIMA CARGO CITY","address":"ELMER FAUCETT 2121 LOCALES 2-101, 2-102, 2-103","descript":null,"url":null,"phone":"","nameDistrict":"CALLAO CERCADO","nameCity":"CALLAO","latitude":"-12.028064","longitude":"-77.103358","_l":[-77.103358,-12.028064]}},{"type":"Feature","geometry":{"coordinates":[-77.112321,-11.996988],"type":"Point"},"properties":{"name":"C.C. CANTA CALLAO","address":"AV. ELMER FAUCETT Y ALEJANDRO BERTELLO, LOCAL 13","descript":null,"url":null,"phone":"6209192","nameDistrict":"CALLAO CERCADO","nameCity":"CALLAO","latitude":"-11.996988","longitude":"-77.112321","_l":[-77.112321,-11.996988]}},{"type":"Feature","geometry":{"coordinates":[-77.106963,-12.023782],"type":"Point"},"properties":{"name":"TALMA","address":"AV. ELMER FAUCETT ESQ. C/ AV. TOMAS MARSANO (AG. AEROP.)","descript":null,"url":null,"phone":"5746613","nameDistrict":"CALLAO CERCADO","nameCity":"CALLAO","latitude":"-12.023782","longitude":"-77.106963","_l":[-77.106963,-12.023782]}},{"type":"Feature","geometry":{"coordinates":[-77.124556,-11.996743],"type":"Point"},"properties":{"name":"OVALO 200 MILLAS","address":"AV. ELMER FAUCETT 6000","descript":null,"url":null,"phone":"5772879","nameDistrict":"CALLAO CERCADO","nameCity":"CALLAO","latitude":"-11.996743","longitude":"-77.124556","_l":[-77.124556,-11.996743]}},{"type":"Feature","geometry":{"coordinates":[-77.148431,-12.059644],"type":"Point"},"properties":{"name":"DP WORLD","address":"AV. MÁNCO CÁPAC 113","descript":null,"url":null,"phone":"4658900","nameDistrict":"CALLAO CERCADO","nameCity":"CALLAO","latitude":"-12.059644","longitude":"-77.148431","_l":[-77.148431,-12.059644]}},{"type":"Feature","geometry":{"coordinates":[-77.148125,-12.059959],"type":"Point"},"properties":{"name":"CALLAO","address":"JR. ADOLFO KING 385","descript":null,"url":null,"phone":"4299848","nameDistrict":"CALLAO CERCADO","nameCity":"CALLAO","latitude":"-12.059959","longitude":"-77.148125","_l":[-77.148125,-12.059959]}},{"type":"Feature","geometry":{"coordinates":[-77.140116,-12.060646],"type":"Point"},"properties":{"name":"SAENZ PEÑA","address":"AV. SAENZ PEÑA 572","descript":null,"url":null,"phone":"4656324","nameDistrict":"CALLAO CERCADO","nameCity":"CALLAO","latitude":"-12.060646","longitude":"-77.140116","_l":[-77.140116,-12.060646]}},{"type":"Feature","geometry":{"coordinates":[-77.08666,-12.051156],"type":"Point"},"properties":{"name":"SAN MARCOS","address":"AV. MCAL. ÓSCAR R. BENAVIDES 5483","descript":null,"url":null,"phone":"4510759","nameDistrict":"CALLAO CERCADO","nameCity":"CALLAO","latitude":"-12.051156","longitude":"-77.086660","_l":[-77.08666,-12.051156]}},{"type":"Feature","geometry":{"coordinates":[-77.142112,-12.050148],"type":"Point"},"properties":{"name":"GUADALUPE","address":"AV. GUARDIA CHALACA S/N (DENTRO DE LA INTENDENCIA DE ADUANA MARITIMA)","descript":null,"url":null,"phone":"4290707","nameDistrict":"CALLAO CERCADO","nameCity":"CALLAO","latitude":"-12.050148","longitude":"-77.142112","_l":[-77.142112,-12.050148]}},{"type":"Feature","geometry":{"coordinates":[-77.104614,-12.02325],"type":"Point"},"properties":{"name":"CENTRO AEREO COMERCIAL","address":"AV. ELMER FAUCETT S/N Y TOMÁS VALLE","descript":null,"url":null,"phone":"5752100","nameDistrict":"CALLAO CERCADO","nameCity":"CALLAO","latitude":"-12.023250","longitude":"-77.104614","_l":[-77.104614,-12.02325]}},{"type":"Feature","geometry":{"coordinates":[-77.110944,-12.048879],"type":"Point"},"properties":{"name":"AGENCIA BCP - MINKA","address":"AV. ARGENTINA CUADRA 32","descript":null,"url":null,"phone":"4299530","nameDistrict":"CALLAO CERCADO","nameCity":"CALLAO","latitude":"-12.048879","longitude":"-77.110944","_l":[-77.110944,-12.048879]}},{"type":"Feature","geometry":{"coordinates":[-77.098681,-12.006512],"type":"Point"},"properties":{"name":"BOCANEGRA","address":"AV. DOMINICOS MZ. A LT. 20 CRUCE CON AV. BOCANEGRA URB. SESQUICENTENARIO","descript":null,"url":null,"phone":"4848593","nameDistrict":"CALLAO CERCADO","nameCity":"CALLAO","latitude":"-12.006512","longitude":"-77.098681","_l":[-77.098681,-12.006512]}},{"type":"Feature","geometry":{"coordinates":[-77.124109,-11.996941],"type":"Point"},"properties":{"name":"CANTOLAO","address":"AV. ELMER FAUCETT 6000","descript":null,"url":null,"phone":"5771037","nameDistrict":"CALLAO CERCADO","nameCity":"CALLAO","latitude":"-11.996941","longitude":"-77.124109","_l":[-77.124109,-11.996941]}},{"type":"Feature","geometry":{"coordinates":[-77.103247,-12.028371],"type":"Point"},"properties":{"name":"LIMA CARGO CITY","address":"AV. ELMER FAUCETT 2121","descript":null,"url":null,"phone":"5744417","nameDistrict":"CALLAO CERCADO","nameCity":"CALLAO","latitude":"-12.028371","longitude":"-77.103247","_l":[-77.103247,-12.028371]}},{"type":"Feature","geometry":{"coordinates":[-77.110944,-12.048879],"type":"Point"},"properties":{"name":"MINKA II","address":"AV. ARGENTINA 3200, C.C. MINKA","descript":null,"url":null,"phone":"4652045","nameDistrict":"CALLAO CERCADO","nameCity":"CALLAO","latitude":"-12.048879","longitude":"-77.110944","_l":[-77.110944,-12.048879]}},{"type":"Feature","geometry":{"coordinates":[-77.113342,-11.996983],"type":"Point"},"properties":{"name":"CANTA CALLAO OPEN PLAZA","address":"AV. ALEJANDRO BERTELLO CON AV. CANTA CALLAO","descript":null,"url":null,"phone":"4843043","nameDistrict":"CALLAO CERCADO","nameCity":"CALLAO","latitude":"-11.996983","longitude":"-77.113342","_l":[-77.113342,-11.996983]}},{"type":"Feature","geometry":{"coordinates":[-77.112683,-12.00125],"type":"Point"},"properties":{"name":"SERLIPSA","address":"CALLE 5 NRO 170 URB. BOCANEGRA","descript":null,"url":null,"phone":"5752708","nameDistrict":"CALLAO CERCADO","nameCity":"CALLAO","latitude":"-12.001250","longitude":"-77.112683","_l":[-77.112683,-12.00125]}},{"type":"Feature","geometry":{"coordinates":[-77.093853,-12.027652],"type":"Point"},"properties":{"name":"CCFF HT QUILCA","address":"ESQ. AV. LIMA 4208 C/ SALAVERRY - 1ER NIVEL TOTTUS","descript":null,"url":null,"phone":"6180000 / 5960","nameDistrict":"CALLAO CERCADO","nameCity":"CALLAO","latitude":"-12.027652","longitude":"-77.093853","_l":[-77.093853,-12.027652]}},{"type":"Feature","geometry":{"coordinates":[-77.140084,-12.060211],"type":"Point"},"properties":{"name":"CC.FF HT SAENZ PEÑA","address":"CALLE CASTILLA 450-477","descript":null,"url":null,"phone":"6180000 / 5982","nameDistrict":"CALLAO CERCADO","nameCity":"CALLAO","latitude":"-12.060211","longitude":"-77.140084","_l":[-77.140084,-12.060211]}},{"type":"Feature","geometry":{"coordinates":[-77.112607,-11.996884],"type":"Point"},"properties":{"name":"CCFF CANTA CALLAO","address":"AV. CANTA CALLAO 378 - PROLONG. BERTELLO 1685","descript":null,"url":null,"phone":"6180000 / 5440","nameDistrict":"CALLAO CERCADO","nameCity":"CALLAO","latitude":"-11.996884","longitude":"-77.112607","_l":[-77.112607,-11.996884]}},{"type":"Feature","geometry":{"coordinates":[-77.14414,-12.061165],"type":"Point"},"properties":{"name":"AG. CALLAO","address":"AV. SAENZ PEÑA 317","descript":null,"url":null,"phone":"4293663","nameDistrict":"CALLAO CERCADO","nameCity":"CALLAO","latitude":"-12.061165","longitude":"-77.144140","_l":[-77.14414,-12.061165]}},{"type":"Feature","geometry":{"coordinates":[-77.087191,-12.05082],"type":"Point"},"properties":{"name":"AGENCIA COLONIAL","address":"CALLE OMEGA 157-161 PARQUE INDUSTRIAL","descript":null,"url":null,"phone":"6163000","nameDistrict":"CALLAO CERCADO","nameCity":"CALLAO","latitude":"-12.050820","longitude":"-77.087191","_l":[-77.087191,-12.05082]}},{"type":"Feature","geometry":{"coordinates":[-77.141691,-12.059825],"type":"Point"},"properties":{"name":"TIENDA SAENZ PEÑA","address":"AV. SAENZ PEÑA 406","descript":null,"url":null,"phone":"4534374","nameDistrict":"CALLAO CERCADO","nameCity":"CALLAO","latitude":"-12.059825","longitude":"-77.141691","_l":[-77.141691,-12.059825]}},{"type":"Feature","geometry":{"coordinates":[-77.10255,-12.02272],"type":"Point"},"properties":{"name":"TIENDA CENTRO AEREO COMERCIAL","address":"AV. ELMER FAUCETT TDA. B MDO. B","descript":null,"url":null,"phone":"5756565","nameDistrict":"CALLAO CERCADO","nameCity":"CALLAO","latitude":"-12.02272","longitude":"-77.10255","_l":[-77.10255,-12.02272]}},{"type":"Feature","geometry":{"coordinates":[-77.086697,-12.050663],"type":"Point"},"properties":{"name":"TIENDA PARQUE INDUSTRIAL - TIENDA OMEGA","address":"CA. OMEGA 173 - PARQUE DE LA INDUSTRIA Y COMERCIO","descript":null,"url":null,"phone":"4524494","nameDistrict":"CALLAO CERCADO","nameCity":"CALLAO","latitude":"-12.050663","longitude":"-77.086697","_l":[-77.086697,-12.050663]}},{"type":"Feature","geometry":{"coordinates":[-77.111524,-12.022814],"type":"Point"},"properties":{"name":"TIENDA LAP","address":"AV. ELMER FAUCETT S/N CALLAO - AEROPUERTO INTERNACIONAL JORGE CHÁVEZ","descript":null,"url":null,"phone":"2192144","nameDistrict":"CALLAO CERCADO","nameCity":"CALLAO","latitude":"-12.022814","longitude":"-77.111524","_l":[-77.111524,-12.022814]}},{"type":"Feature","geometry":{"coordinates":[-77.111148,-12.022951],"type":"Point"},"properties":{"name":"TIENDA INTERBANK MONEY EXCHANGE LAP","address":"AV. E. FAUCETT S/N - AEROPUERTO INTERNACIONAL JORGE CHAVEZ","descript":null,"url":null,"phone":"2192000","nameDistrict":"CALLAO CERCADO","nameCity":"CALLAO","latitude":"-12.022951","longitude":"-77.111148","_l":[-77.111148,-12.022951]}},{"type":"Feature","geometry":{"coordinates":[-77.115322,-12.048889],"type":"Point"},"properties":{"name":"TIENDA MINKA","address":"AV. ARGENTINA S/N CENTRO COMERCIAL MINKA","descript":null,"url":null,"phone":"2192156","nameDistrict":"CALLAO CERCADO","nameCity":"CALLAO","latitude":"-12.048889","longitude":"-77.115322","_l":[-77.115322,-12.048889]}},{"type":"Feature","geometry":{"coordinates":[-77.124455,-11.995554],"type":"Point"},"properties":{"name":"GAMBETTA","address":"AV. FAUCETT 6000","descript":null,"url":null,"phone":"2192203","nameDistrict":"CALLAO CERCADO","nameCity":"CALLAO","latitude":"-11.995554","longitude":"-77.124455","_l":[-77.124455,-11.995554]}},{"type":"Feature","geometry":{"coordinates":[-77.098542,-12.03788],"type":"Point"},"properties":{"name":"LIMA CARGO CITY","address":"AV. ELMER FAUCETT 2814-2818","descript":null,"url":null,"phone":"2192058","nameDistrict":"CALLAO CERCADO","nameCity":"CALLAO","latitude":"-12.037880","longitude":"-77.098542","_l":[-77.098542,-12.03788]}},{"type":"Feature","geometry":{"coordinates":[-77.113061,-11.997941],"type":"Point"},"properties":{"name":"TIENDA CANTA CALLAO","address":"AV. CANTA CALLAO 378 Y PROLONGACIÓN ALEJANDRO BERTELLO 1685 LOCAL 14","descript":null,"url":null,"phone":"2192000 / 637801","nameDistrict":"CALLAO CERCADO","nameCity":"CALLAO","latitude":"-11.997941","longitude":"-77.113061","_l":[-77.113061,-11.997941]}},{"type":"Feature","geometry":{"coordinates":[-77.11102,-12.048837],"type":"Point"},"properties":{"name":"MINKA","address":"AV. ARGENTINA 3093","descript":null,"url":null,"phone":"5138000 / 3162-3161","nameDistrict":"CALLAO CERCADO","nameCity":"CALLAO","latitude":"-12.048837","longitude":"-77.111020","_l":[-77.11102,-12.048837]}},{"type":"Feature","geometry":{"coordinates":[-77.11265,-12.047546],"type":"Point"},"properties":{"name":"TIENDA DEPARTAMENTAL RIPLEY MINKA","address":"AV. ARGENTINA 3093 (C.C. MINKA)","descript":null,"url":null,"phone":"6115700 / 8816","nameDistrict":"CALLAO CERCADO","nameCity":"CALLAO","latitude":"-12.047546","longitude":"-77.112650","_l":[-77.11265,-12.047546]}},{"type":"Feature","geometry":{"coordinates":[-77.147315,-12.061595],"type":"Point"},"properties":{"name":"CALLAO","address":"JR. ADOLFO KING ESQ. C/ CA. LIBERTAD S/N","descript":null,"url":null,"phone":"4298534","nameDistrict":"CALLAO CERCADO","nameCity":"CALLAO","latitude":"-12.061595","longitude":"-77.147315","_l":[-77.147315,-12.061595]}},{"type":"Feature","geometry":{"coordinates":[-77.082395,-12.050526],"type":"Point"},"properties":{"name":"COLONIAL 1","address":"AV. ÓSCAR R. BENAVIDES 5751-5755","descript":null,"url":null,"phone":"4640150","nameDistrict":"CALLAO CERCADO","nameCity":"CALLAO","latitude":"-12.050526","longitude":"-77.082395","_l":[-77.082395,-12.050526]}},{"type":"Feature","geometry":{"coordinates":[-77.104346,-12.023722],"type":"Point"},"properties":{"name":"CENTRO AERO COMERCIAL","address":"AV. ELMER FAUCETT ESQ. C/ AV. TOMÁS VALLE S/N LOC. 101A Y 102A","descript":null,"url":null,"phone":"5741911","nameDistrict":"CALLAO CERCADO","nameCity":"CALLAO","latitude":"-12.023722","longitude":"-77.104346","_l":[-77.104346,-12.023722]}},{"type":"Feature","geometry":{"coordinates":[-77.142112,-12.050148],"type":"Point"},"properties":{"name":"ESPECIAL ADUANA MAR.CALLAO","address":"AV. GUARDIA CHALACA S/N CDRA. 1","descript":null,"url":null,"phone":"4531495","nameDistrict":"CALLAO CERCADO","nameCity":"CALLAO","latitude":"-12.050148","longitude":"-77.142112","_l":[-77.142112,-12.050148]}},{"type":"Feature","geometry":{"coordinates":[-77.131211,-11.951229],"type":"Point"},"properties":{"name":"ESPECIAL PETROPERU","address":"AV. NÉSTOR GAMBETA 1265","descript":null,"url":null,"phone":"4690842","nameDistrict":"CALLAO CERCADO","nameCity":"CALLAO","latitude":"-11.951229","longitude":"-77.131211","_l":[-77.131211,-11.951229]}},{"type":"Feature","geometry":{"coordinates":[-77.087395,-12.051292],"type":"Point"},"properties":{"name":"COLONIAL 2","address":"AV. COLONIAL 5411 - PARQUE DE LA INDUSTRIA Y COMERCIO","descript":null,"url":null,"phone":"6161133","nameDistrict":"CALLAO CERCADO","nameCity":"CALLAO","latitude":"-12.051292","longitude":"-77.087395","_l":[-77.087395,-12.051292]}},{"type":"Feature","geometry":{"coordinates":[-77.103209,-12.028596],"type":"Point"},"properties":{"name":"AGENCIA LIMA CARGO CITY","address":"AV. ELMER FAUCETT 2121 LOCAL 1-101 C.C. LIMA CARGO CITY","descript":null,"url":null,"phone":"4844860","nameDistrict":"CALLAO CERCADO","nameCity":"CALLAO","latitude":"-12.028596","longitude":"-77.103209","_l":[-77.103209,-12.028596]}},{"type":"Feature","geometry":{"coordinates":[-77.145234,-12.060998],"type":"Point"},"properties":{"name":"CALLAO","address":"AVENIDA SÁENZ PEÑA 298","descript":null,"url":null,"phone":"4655611","nameDistrict":"CALLAO CERCADO","nameCity":"CALLAO","latitude":"-12.060998","longitude":"-77.145234","_l":[-77.145234,-12.060998]}},{"type":"Feature","geometry":{"coordinates":[-77.106375,-12.021545],"type":"Point"},"properties":{"name":"AEROPUERTO","address":"CENTRO AEREO COMERCIAL LOCALES 105-B,106-B,107-B,108-B MODULO B","descript":null,"url":null,"phone":"5750884","nameDistrict":"CALLAO CERCADO","nameCity":"CALLAO","latitude":"-12.021545","longitude":"-77.106375","_l":[-77.106375,-12.021545]}},{"type":"Feature","geometry":{"coordinates":[-77.145181,-12.061061],"type":"Point"},"properties":{"name":"CALLAO","address":"AVENIDA SAÉNZ PEÑA 255","descript":null,"url":null,"phone":"4531318","nameDistrict":"CALLAO CERCADO","nameCity":"CALLAO","latitude":"-12.061061","longitude":"-77.145181","_l":[-77.145181,-12.061061]}},{"type":"Feature","geometry":{"coordinates":[-77.135696,-12.044766],"type":"Point"},"properties":{"name":"BASE NAVAL","address":"AVENIDA CONTRALMIRANTE MORA 791","descript":null,"url":null,"phone":"4297525","nameDistrict":"CALLAO CERCADO","nameCity":"CALLAO","latitude":"-12.044766","longitude":"-77.135696","_l":[-77.135696,-12.044766]}},{"type":"Feature","geometry":{"coordinates":[-77.106428,-12.021923],"type":"Point"},"properties":{"name":"MIGRACIONES","address":"AVENIDA ELMER FAUCETT S/N","descript":null,"url":null,"phone":"519200 / 16752","nameDistrict":"CALLAO CERCADO","nameCity":"CALLAO","latitude":"-12.021923","longitude":"-77.106428","_l":[-77.106428,-12.021923]}},{"type":"Feature","geometry":{"coordinates":[-77.104411,-12.068993],"type":"Point"},"properties":{"name":"CUARTEL GENERAL DE LA MARINA","address":"AVENIDA LA MARINA S/N","descript":null,"url":null,"phone":"4519292","nameDistrict":"CALLAO CERCADO","nameCity":"CALLAO","latitude":"-12.068993","longitude":"-77.104411","_l":[-77.104411,-12.068993]}},{"type":"Feature","geometry":{"coordinates":[-77.111385,-12.049121],"type":"Point"},"properties":{"name":"MINKA","address":"AVENIDA ARGENTINA 3257","descript":null,"url":null,"phone":"4652265","nameDistrict":"CALLAO CERCADO","nameCity":"CALLAO","latitude":"-12.049121","longitude":"-77.111385","_l":[-77.111385,-12.049121]}},{"type":"Feature","geometry":{"coordinates":[-77.106514,-12.022059],"type":"Point"},"properties":{"name":"SALÓN INTERNACIONAL","address":"AVENIDA ELMER FAUCETT S/N","descript":null,"url":null,"phone":"5171862","nameDistrict":"CALLAO CERCADO","nameCity":"CALLAO","latitude":"-12.022059","longitude":"-77.106514","_l":[-77.106514,-12.022059]}},{"type":"Feature","geometry":{"coordinates":[-77.142477,-12.056392],"type":"Point"},"properties":{"name":"CORTE SUPERIOR DE JUSTICIA DEL CALLAO","address":"AVENIDA 2 DE MAYO CUADRA 5","descript":null,"url":null,"phone":"4290927","nameDistrict":"CALLAO CERCADO","nameCity":"CALLAO","latitude":"-12.056392","longitude":"-77.142477","_l":[-77.142477,-12.056392]}},{"type":"Feature","geometry":{"coordinates":[-77.148464,-12.059288],"type":"Point"},"properties":{"name":"CAPITANÍA DE GUARDACOSTAS MARÍTIMA","address":"PLAZA GRAU S/N","descript":null,"url":null,"phone":"5192000 / 16748","nameDistrict":"CALLAO CERCADO","nameCity":"CALLAO","latitude":"-12.059288","longitude":"-77.148464","_l":[-77.148464,-12.059288]}},{"type":"Feature","geometry":{"coordinates":[-77.105125,-12.023434],"type":"Point"},"properties":{"name":"AGENCIA CENTRO AÉREO COMERCIAL","address":"ESQUINA AV. ELMER FAUCETT CON TOMÁS VALLE, LOCAL 106–107 A.","descript":null,"url":null,"phone":"613 3000/Anexo 4820","nameDistrict":"CALLAO CERCADO","nameCity":"CALLAO","latitude":"-12.023434","longitude":"-77.105125","_l":[-77.105125,-12.023434]}},{"type":"Feature","geometry":{"coordinates":[-77.137114,-12.03825],"type":"Point"},"properties":{"name":"BIENESTAR DE LA FAMILIA","address":"AV. VENEZUELA S/N CDRA. 34","descript":null,"url":null,"phone":"","nameDistrict":"CALLAO CERCADO","nameCity":"CALLAO","latitude":"-12.03825","longitude":"-77.137114","_l":[-77.137114,-12.03825]}},{"type":"Feature","geometry":{"coordinates":[-77.110624,-12.049404],"type":"Point"},"properties":{"name":"CAFAE CALLAO","address":"AV. ARGENTINA 3093, LOCAL 408, CALLE , PABELLON 7 - CC MINKA","descript":null,"url":null,"phone":"","nameDistrict":"CALLAO CERCADO","nameCity":"CALLAO","latitude":"-12.049404","longitude":"-77.110624","_l":[-77.110624,-12.049404]}},{"type":"Feature","geometry":{"coordinates":[-77.144281,-12.061019],"type":"Point"},"properties":{"name":"B.E.C CALLAO","address":"AV. SAENZ PEÑA 323 - 2DO PISO","descript":null,"url":null,"phone":"","nameDistrict":"CALLAO CERCADO","nameCity":"CALLAO","latitude":"-12.061019","longitude":"-77.144281","_l":[-77.144281,-12.061019]}},{"type":"Feature","geometry":{"coordinates":[-77.09437,-12.026519],"type":"Point"},"properties":{"name":"QUILCA","address":"AV. LIMA 4208","descript":null,"url":null,"phone":"","nameDistrict":"CALLAO CERCADO","nameCity":"CALLAO","latitude":"-12.026519","longitude":"-77.09437","_l":[-77.09437,-12.026519]}},{"type":"Feature","geometry":{"coordinates":[-77.1029,-12.054514],"type":"Point"},"properties":{"name":"BELLAVISTA","address":"AV. OSCAR BENAVIDES 3866  URB. DEL AGUILA BELLAVISTA CALLAO","descript":null,"url":null,"phone":"","nameDistrict":"CALLAO CERCADO","nameCity":"CALLAO","latitude":"-12.054514","longitude":"-77.1029","_l":[-77.1029,-12.054514]}},{"type":"Feature","geometry":{"coordinates":[-77.117468,-12.006896],"type":"Point"},"properties":{"name":"VENTANILLA","address":"MZ. 03, LOTE 18, URB. EX ZONA COMERCIAL E INDUSTRIAL DE VENTANILLA","descript":null,"url":null,"phone":"2116000 / 32901-32903","nameDistrict":"VENTANILLA","nameCity":"CALLAO","latitude":"-12.006896","longitude":"-77.117468","_l":[-77.117468,-12.006896]}},{"type":"Feature","geometry":{"coordinates":[-77.130007,-11.919374],"type":"Point"},"properties":{"name":"REPSOL (EX - LA PAMPILLA)","address":"KM 25 CARRETERA VENTANILLA (PETROPERU)","descript":null,"url":null,"phone":"5776419","nameDistrict":"VENTANILLA","nameCity":"CALLAO","latitude":"-11.919374","longitude":"-77.130007","_l":[-77.130007,-11.919374]}},{"type":"Feature","geometry":{"coordinates":[-77.128937,-11.8636],"type":"Point"},"properties":{"name":"VENTANILLA","address":"MZ C-3, LOTE 19 - MALECÓN ANDRÉS AVELINO CÁCERES DE LA URBANIZACIÓN EX ZONA COMERCIAL E INDUSTRI","descript":null,"url":null,"phone":"5531863","nameDistrict":"VENTANILLA","nameCity":"CALLAO","latitude":"-11.8636","longitude":"-77.128937","_l":[-77.128937,-11.8636]}},{"type":"Feature","geometry":{"coordinates":[-77.126917,-11.871818],"type":"Point"},"properties":{"name":"VENTANILLA","address":"MZ. I-1, LOTE 1 Y 2 ZONA INDUSTRIAL, CARRETERA A VENTANILLA KM 5,5","descript":null,"url":null,"phone":"5530596","nameDistrict":"VENTANILLA","nameCity":"CALLAO","latitude":"-11.871818","longitude":"-77.126917","_l":[-77.126917,-11.871818]}},{"type":"Feature","geometry":{"coordinates":[-77.127671,-11.876469],"type":"Point"},"properties":{"name":"PLAZA CIVICA VENTANILLA","address":"MZ. C10, SUB LOTE A, URB. EX ZONA COMERCIAL","descript":null,"url":null,"phone":"5530468","nameDistrict":"VENTANILLA","nameCity":"CALLAO","latitude":"-11.876469","longitude":"-77.127671","_l":[-77.127671,-11.876469]}},{"type":"Feature","geometry":{"coordinates":[-77.130804,-11.917701],"type":"Point"},"properties":{"name":"PAMPILLA","address":"KM 25 DE LA CARRETERA VENTANILLA (PLANTA DE VENTAS DE PETROPERÚ)","descript":null,"url":null,"phone":"5776604","nameDistrict":"VENTANILLA","nameCity":"CALLAO","latitude":"-11.917701","longitude":"-77.130804","_l":[-77.130804,-11.917701]}},{"type":"Feature","geometry":{"coordinates":[-77.126914,-11.875598],"type":"Point"},"properties":{"name":"AG. CARSA VENTANILLA","address":"MZ. C8 LT. 20 - URB. LA BANDERA","descript":null,"url":null,"phone":"6122000 / 3414","nameDistrict":"VENTANILLA","nameCity":"CALLAO","latitude":"-11.875598","longitude":"-77.126914","_l":[-77.126914,-11.875598]}},{"type":"Feature","geometry":{"coordinates":[-77.126228,-11.88743],"type":"Point"},"properties":{"name":"VENTANILLA","address":"AV. MALECÓN ANDRÉS A. CÁCERES MZ. C-3 LT. 20 - EX ZONA COMERCIAL VENTANILLA","descript":null,"url":null,"phone":"2192236","nameDistrict":"VENTANILLA","nameCity":"CALLAO","latitude":"-11.887430","longitude":"-77.126228","_l":[-77.126228,-11.88743]}},{"type":"Feature","geometry":{"coordinates":[-77.071677,-11.882207],"type":"Point"},"properties":{"name":"VENTANILLA","address":"MZ. C LT. 13 URB. EX ZONA COMERCIAL E INDUSTRIAL VENTANILLA","descript":null,"url":null,"phone":"5138000 / 1401-1402","nameDistrict":"VENTANILLA","nameCity":"CALLAO","latitude":"-11.882207","longitude":"-77.071677","_l":[-77.071677,-11.882207]}},{"type":"Feature","geometry":{"coordinates":[-77.134108,-11.919717],"type":"Point"},"properties":{"name":"ESPECIAL LA PAMPILLA","address":"KM 25 CARRETERA VENTANILLA","descript":null,"url":null,"phone":"5776605","nameDistrict":"VENTANILLA","nameCity":"CALLAO","latitude":"-11.919717","longitude":"-77.134108","_l":[-77.134108,-11.919717]}},{"type":"Feature","geometry":{"coordinates":[-77.129645,-11.878564],"type":"Point"},"properties":{"name":"VENTANILLA ","address":"AVENIDA LA PLAYA S/N, MZ. C9 - EX ZONA COMERCIAL","descript":null,"url":null,"phone":"5534171","nameDistrict":"VENTANILLA","nameCity":"CALLAO","latitude":"-11.878564","longitude":"-77.129645","_l":[-77.129645,-11.878564]}},{"type":"Feature","geometry":{"coordinates":[-77.126117,-11.87617],"type":"Point"},"properties":{"name":"AGENCIA VENTANILLA","address":"CARRRETERA VENTANILLA MZ. A LOTE 2-3 Y 4 URB. PEDRO CUEVA","descript":null,"url":null,"phone":"","nameDistrict":"VENTANILLA","nameCity":"CALLAO","latitude":"-11.87617","longitude":"-77.126117","_l":[-77.126117,-11.87617]}},{"type":"Feature","geometry":{"coordinates":[-77.161257,-12.069832],"type":"Point"},"properties":{"name":"LA PUNTA","address":"AV. BOLOGNESI 612","descript":null,"url":null,"phone":"4294561","nameDistrict":"LA PUNTA","nameCity":"CALLAO","latitude":"-12.069832","longitude":"-77.161257","_l":[-77.161257,-12.069832]}},{"type":"Feature","geometry":{"coordinates":[-77.016676,-11.875944],"type":"Point"},"properties":{"name":"AGENCIA CARABAYLLO","address":"AV. TÚPAC AMARU 3000-3002","descript":null,"url":null,"phone":"","nameDistrict":"CARABAYLLO","nameCity":"LIMA","latitude":"-11.875944","longitude":"-77.016676","_l":[-77.016676,-11.875944]}},{"type":"Feature","geometry":{"coordinates":[-77.01563,-11.874091],"type":"Point"},"properties":{"name":"EL PROGRESO","address":"AV. TÚPAC AMARU 3364","descript":null,"url":null,"phone":"5472515","nameDistrict":"CARABAYLLO","nameCity":"LIMA","latitude":"-11.874091","longitude":"-77.015630","_l":[-77.01563,-11.874091]}},{"type":"Feature","geometry":{"coordinates":[-77.031106,-11.899079],"type":"Point"},"properties":{"name":"CHIMPU OCLLO","address":"AV. CHIMPU OCLLO MZ. L-1 LT. 32 Y 33, URB. LUCYANA","descript":null,"url":null,"phone":"5278527","nameDistrict":"CARABAYLLO","nameCity":"LIMA","latitude":"-11.899079","longitude":"-77.031106","_l":[-77.031106,-11.899079]}},{"type":"Feature","geometry":{"coordinates":[-77.01666,-11.87659],"type":"Point"},"properties":{"name":"CARABAYLLO","address":"AV. TÚPAC AMARU 3043 - URB. PROGRESO","descript":null,"url":null,"phone":"5138000 / 3301 - 3302","nameDistrict":"CARABAYLLO","nameCity":"LIMA","latitude":"-11.87659","longitude":"-77.01666","_l":[-77.01666,-11.87659]}},{"type":"Feature","geometry":{"coordinates":[-77.037227,-11.893661],"type":"Point"},"properties":{"name":"CARABAYLLO","address":"AVENIDA CHIMPU OCLLO 747","descript":null,"url":null,"phone":"5442386","nameDistrict":"CARABAYLLO","nameCity":"LIMA","latitude":"-11.893661","longitude":"-77.037227","_l":[-77.037227,-11.893661]}},{"type":"Feature","geometry":{"coordinates":[-77.015492,-11.873808],"type":"Point"},"properties":{"name":"CARABAYLLO","address":"AV. TÚPAC AMARU 3368, ASENTAMIENTO HUMANO PROGRESO 2DO SECTOR","descript":null,"url":null,"phone":"","nameDistrict":"CARABAYLLO","nameCity":"LIMA","latitude":"-11.873808","longitude":"-77.015492","_l":[-77.015492,-11.873808]}},{"type":"Feature","geometry":{"coordinates":[-77.057629,-11.965215],"type":"Point"},"properties":{"name":"CAFAE","address":"AV. MAESTRO PERUANO 341 - 2DO PISO","descript":null,"url":null,"phone":"","nameDistrict":"CARABAYLLO","nameCity":"LIMA","latitude":"-11.965215","longitude":"-77.057629","_l":[-77.057629,-11.965215]}},{"type":"Feature","geometry":{"coordinates":[-77.023151,-12.169581],"type":"Point"},"properties":{"name":"AGENCIA HUAYLAS","address":"AV. AV. DEFENSORES DEL MORRO (EX-HUAYLAS) 599","descript":null,"url":null,"phone":"","nameDistrict":"CHORRILLOS","nameCity":"LIMA","latitude":"-12.169581","longitude":"-77.023151","_l":[-77.023151,-12.169581]}},{"type":"Feature","geometry":{"coordinates":[-76.994864,-12.176395],"type":"Point"},"properties":{"name":"HCC CHORRILLOS","address":"AV. GUARDIA CIVIL 721-729 - URB. LA CAMPIÑA","descript":null,"url":null,"phone":"","nameDistrict":"CHORRILLOS","nameCity":"LIMA","latitude":"-12.176395","longitude":"-76.994864","_l":[-76.994864,-12.176395]}},{"type":"Feature","geometry":{"coordinates":[-77.013438,-12.171917],"type":"Point"},"properties":{"name":"AGENCIA PLAZA SUR","address":"C.C. PLAZA LIMA SUR, AV. PROLONGACIÓN PASEO DE LA REPÚBLICA S/N","descript":null,"url":null,"phone":"6133540","nameDistrict":"CHORRILLOS","nameCity":"LIMA","latitude":"-12.171917","longitude":"-77.013438","_l":[-77.013438,-12.171917]}},{"type":"Feature","geometry":{"coordinates":[-77.023435,-12.169578],"type":"Point"},"properties":{"name":"AGENCIA CHORRILLOS","address":"C.C. PASEO CENTER LOCAL 102 AV. GUARDIA CIVIL 390 - LA CAMPIÑA","descript":null,"url":null,"phone":"6133993","nameDistrict":"CHORRILLOS","nameCity":"LIMA","latitude":"-12.169578","longitude":"-77.023435","_l":[-77.023435,-12.169578]}},{"type":"Feature","geometry":{"coordinates":[-77.006823,-12.184859],"type":"Point"},"properties":{"name":"VILLA MARINA","address":"AV. GUARDIA CIVIL 152-156","descript":null,"url":null,"phone":"2518038","nameDistrict":"CHORRILLOS","nameCity":"LIMA","latitude":"-12.184859","longitude":"-77.006823","_l":[-77.006823,-12.184859]}},{"type":"Feature","geometry":{"coordinates":[-77.023403,-12.169671],"type":"Point"},"properties":{"name":"CHORRILLOS","address":"AV. HUAYLAS 601","descript":null,"url":null,"phone":"4670404","nameDistrict":"CHORRILLOS","nameCity":"LIMA","latitude":"-12.169671","longitude":"-77.023403","_l":[-77.023403,-12.169671]}},{"type":"Feature","geometry":{"coordinates":[-77.033349,-12.166636],"type":"Point"},"properties":{"name":"CLUB REGATAS LIMA","address":"AV. MALECÓN DE LA RIBERA S/N","descript":null,"url":null,"phone":"2518106","nameDistrict":"CHORRILLOS","nameCity":"LIMA","latitude":"-12.166636","longitude":"-77.033349","_l":[-77.033349,-12.166636]}},{"type":"Feature","geometry":{"coordinates":[-77.013403,-12.172683],"type":"Point"},"properties":{"name":"PLAZA LIMA SUR","address":"PROLONGACIÓN PASEO DE LA REPÚBLICA - C.C. PLAZA LIMA SUR","descript":null,"url":null,"phone":"2527650","nameDistrict":"CHORRILLOS","nameCity":"LIMA","latitude":"-12.172683","longitude":"-77.013403","_l":[-77.013403,-12.172683]}},{"type":"Feature","geometry":{"coordinates":[-77.026378,-12.168597],"type":"Point"},"properties":{"name":"CHORRILLOS","address":"AV. ALEJANDRO IGLESIAS 614","descript":null,"url":null,"phone":"4670598","nameDistrict":"CHORRILLOS","nameCity":"LIMA","latitude":"-12.168597","longitude":"-77.026378","_l":[-77.026378,-12.168597]}},{"type":"Feature","geometry":{"coordinates":[-77.013666,-12.173873],"type":"Point"},"properties":{"name":"PLAZA LIMA SUR","address":"PROLONGACIÓN PASEO DE LA REPÚBLICA S/N. URB. MATELLINI","descript":null,"url":null,"phone":"4676363","nameDistrict":"CHORRILLOS","nameCity":"LIMA","latitude":"-12.173873","longitude":"-77.013666","_l":[-77.013666,-12.173873]}},{"type":"Feature","geometry":{"coordinates":[-77.032651,-12.166377],"type":"Point"},"properties":{"name":"REGATAS","address":"AV. CHACHI DIBOS 1201","descript":null,"url":null,"phone":"2512123","nameDistrict":"CHORRILLOS","nameCity":"LIMA","latitude":"-12.166377","longitude":"-77.032651","_l":[-77.032651,-12.166377]}},{"type":"Feature","geometry":{"coordinates":[-77.0118,-12.196924],"type":"Point"},"properties":{"name":"STRIP CENTER ALAMEDA SUR","address":"AV. ALAMEDA SUR ESQUINA AV. SAN MARCOS, PARCELA II","descript":null,"url":null,"phone":"2545926","nameDistrict":"CHORRILLOS","nameCity":"LIMA","latitude":"-12.196924","longitude":"-77.0118","_l":[-77.0118,-12.196924]}},{"type":"Feature","geometry":{"coordinates":[-77.003543,-12.184302],"type":"Point"},"properties":{"name":"STRIP CENTER GUARDIA CIVIL","address":"AV. GUARDIA CIVIL 338, LOCAL 101, URB. LA CAMPIÑA","descript":null,"url":null,"phone":"2516392","nameDistrict":"CHORRILLOS","nameCity":"LIMA","latitude":"-12.184302","longitude":"-77.003543","_l":[-77.003543,-12.184302]}},{"type":"Feature","geometry":{"coordinates":[-77.012947,-12.180705],"type":"Point"},"properties":{"name":"HUAYLAS","address":"AV. DEFENSORES DEL MORRO 1868","descript":null,"url":null,"phone":"","nameDistrict":"CHORRILLOS","nameCity":"LIMA","latitude":"-12.180705","longitude":"-77.012947","_l":[-77.012947,-12.180705]}},{"type":"Feature","geometry":{"coordinates":[-77.017722,-12.176133],"type":"Point"},"properties":{"name":"CCFF HT HUAYLAS","address":"AV. DEFENSORES DEL MORRO (EX HUAYLAS) 1420","descript":null,"url":null,"phone":"6180000 / 5968","nameDistrict":"CHORRILLOS","nameCity":"LIMA","latitude":"-12.176133","longitude":"-77.017722","_l":[-77.017722,-12.176133]}},{"type":"Feature","geometry":{"coordinates":[-77.013838,-12.173021],"type":"Point"},"properties":{"name":"AG. CHORRILLOS","address":"AV. PROLONGACIÓN PASEO DE LA REPÚBLICA S/N URB. MATELLINI CHORRILLOS - CC PLAZA LIMA SUR - LOCAL C","descript":null,"url":null,"phone":"4672110","nameDistrict":"CHORRILLOS","nameCity":"LIMA","latitude":"-12.173021","longitude":"-77.013838","_l":[-77.013838,-12.173021]}},{"type":"Feature","geometry":{"coordinates":[-77.025929,-12.168582],"type":"Point"},"properties":{"name":"AG. CHORRILLOS II","address":"AV. ALEJANDRO IGLESIAS 599, ESQ. CON JR. ÓSCAR DE LA BARREDA","descript":null,"url":null,"phone":"2520088","nameDistrict":"CHORRILLOS","nameCity":"LIMA","latitude":"-12.168582","longitude":"-77.025929","_l":[-77.025929,-12.168582]}},{"type":"Feature","geometry":{"coordinates":[-77.032613,-12.166379],"type":"Point"},"properties":{"name":"REGATAS","address":"AV. CHACHI DIBOS 1201. CLUB REGATAS LIMA","descript":null,"url":null,"phone":"2515934","nameDistrict":"CHORRILLOS","nameCity":"LIMA","latitude":"-12.166379","longitude":"-77.032613","_l":[-77.032613,-12.166379]}},{"type":"Feature","geometry":{"coordinates":[-77.024191,-12.168812],"type":"Point"},"properties":{"name":"TIENDA INTERBANK CHORRILLOS","address":"AV. HUAYLAS 523","descript":null,"url":null,"phone":"2192143","nameDistrict":"CHORRILLOS","nameCity":"LIMA","latitude":"-12.168812","longitude":"-77.024191","_l":[-77.024191,-12.168812]}},{"type":"Feature","geometry":{"coordinates":[-77.01093,-12.196656],"type":"Point"},"properties":{"name":"MM CHORRILLOS","address":"AV. ALAMEDA SUR ESQ. AV. ALAMEDA SAN MARCOS, MZ. II, TIENDA 108","descript":null,"url":null,"phone":"2192091","nameDistrict":"CHORRILLOS","nameCity":"LIMA","latitude":"-12.196656","longitude":"-77.010930","_l":[-77.01093,-12.196656]}},{"type":"Feature","geometry":{"coordinates":[-77.013441,-12.172381],"type":"Point"},"properties":{"name":"PLAZA LIMA SUR","address":"C.C. PLAZA SUR, AV. PROLONGACIÓN PASEO DE LA REPÚBLICA S/N","descript":null,"url":null,"phone":"2192000 / 616201","nameDistrict":"CHORRILLOS","nameCity":"LIMA","latitude":"-12.172381","longitude":"-77.013441","_l":[-77.013441,-12.172381]}},{"type":"Feature","geometry":{"coordinates":[-77.000555,-12.183873],"type":"Point"},"properties":{"name":"GUARDIA CIVIL","address":"C.C. PASEO CENTER. AV. GUARDIA CIVIL S/N SUB LT. 16 A, MZ. E, LOCALES 103-104","descript":null,"url":null,"phone":"2192000 / 628501","nameDistrict":"CHORRILLOS","nameCity":"LIMA","latitude":"-12.183873","longitude":"-77.000555","_l":[-77.000555,-12.183873]}},{"type":"Feature","geometry":{"coordinates":[-76.992329,-12.172365],"type":"Point"},"properties":{"name":"MM CHORRILLOS REAL PLAZA","address":"AV. GUARDIA CIVIL 927, URB. LA CAMPIÑA","descript":null,"url":null,"phone":"2192000 / 674410","nameDistrict":"CHORRILLOS","nameCity":"LIMA","latitude":"-12.172365","longitude":"-76.992329","_l":[-76.992329,-12.172365]}},{"type":"Feature","geometry":{"coordinates":[-77.001435,-12.183663],"type":"Point"},"properties":{"name":"CHORRILLOS","address":"AV. GUARDIA CIVIL 312, URB. LA CAMPIÑA ETAPA I MZ. E LT. 11-13","descript":null,"url":null,"phone":"5138000 / 0901 - 0902","nameDistrict":"CHORRILLOS","nameCity":"LIMA","latitude":"-12.183663","longitude":"-77.001435","_l":[-77.001435,-12.183663]}},{"type":"Feature","geometry":{"coordinates":[-76.975777,-12.182703],"type":"Point"},"properties":{"name":"SAN PEDRO","address":"AV. EL TRIUNFO S/N PUERTA 1 AA.HH. TÚPAC AMARU DE VILLA - SAN PEDRO DE CHORRILLOS","descript":null,"url":null,"phone":"2589009","nameDistrict":"CHORRILLOS","nameCity":"LIMA","latitude":"-12.182703","longitude":"-76.975777","_l":[-76.975777,-12.182703]}},{"type":"Feature","geometry":{"coordinates":[-77.015045,-12.172764],"type":"Point"},"properties":{"name":"TIENDA DEPARTAMENTAL RIPLEY CHORRILLOS","address":"METRO CHORRILLOS","descript":null,"url":null,"phone":"6115700 / 8262","nameDistrict":"CHORRILLOS","nameCity":"LIMA","latitude":"-12.172764","longitude":"-77.015045","_l":[-77.015045,-12.172764]}},{"type":"Feature","geometry":{"coordinates":[-77.007028,-12.184968],"type":"Point"},"properties":{"name":"CHORRILLOS","address":"AV. GUARDIA CIVIL 140-144","descript":null,"url":null,"phone":"4676728","nameDistrict":"CHORRILLOS","nameCity":"LIMA","latitude":"-12.184968","longitude":"-77.007028","_l":[-77.007028,-12.184968]}},{"type":"Feature","geometry":{"coordinates":[-77.032678,-12.166135],"type":"Point"},"properties":{"name":"ESPECIAL REGATAS LIMA","address":"AV. MALECÓN DE LA RIBERA S/N - CLUB REGATAS LIMA","descript":null,"url":null,"phone":"2517939","nameDistrict":"CHORRILLOS","nameCity":"LIMA","latitude":"-12.166135","longitude":"-77.032678","_l":[-77.032678,-12.166135]}},{"type":"Feature","geometry":{"coordinates":[-77.013055,-12.17262],"type":"Point"},"properties":{"name":"PLAZA LIMA SUR CHORRILLOS 1","address":"AV. PROLONGACIÓN PASEO DE LA REPÚBLICA S/N, C.C. PLAZA LIMA SUR, LOCALES CF-02 Y CF-03, URB. MATEL","descript":null,"url":null,"phone":"2527666","nameDistrict":"CHORRILLOS","nameCity":"LIMA","latitude":"-12.172620","longitude":"-77.013055","_l":[-77.013055,-12.17262]}},{"type":"Feature","geometry":{"coordinates":[-77.013055,-12.17262],"type":"Point"},"properties":{"name":"PLAZA LIMA SUR CHORRILLOS 2","address":"C.C. PLAZA LIMA SUR, LOCALES CF-14, CF-15, CF-16. PROLONGACIÓN PASEO DE LA REPÚBLICA S/N. URB MATE","descript":null,"url":null,"phone":"2116000","nameDistrict":"CHORRILLOS","nameCity":"LIMA","latitude":"-12.172620","longitude":"-77.013055","_l":[-77.013055,-12.17262]}},{"type":"Feature","geometry":{"coordinates":[-77.025189,-12.167596],"type":"Point"},"properties":{"name":"CHORRILLOS","address":"AVENIDA ALEJANDRO IGLESIAS 496 URBANIZACIÓN CHORRILLOS (CIUDAD)","descript":null,"url":null,"phone":"2518625","nameDistrict":"CHORRILLOS","nameCity":"LIMA","latitude":"-12.167596","longitude":"-77.025189","_l":[-77.025189,-12.167596]}},{"type":"Feature","geometry":{"coordinates":[-77.019289,-12.155713],"type":"Point"},"properties":{"name":"CENTROS ACADÉMICOS","address":"AVENIDA ESCUELA MILITAR S/N","descript":null,"url":null,"phone":"4676695","nameDistrict":"CHORRILLOS","nameCity":"LIMA","latitude":"-12.155713","longitude":"-77.019289","_l":[-77.019289,-12.155713]}},{"type":"Feature","geometry":{"coordinates":[-77.010782,-12.196992],"type":"Point"},"properties":{"name":"CEDROS DE VILLA","address":"AV. ALAMEDA SUR, ESQUINA CON AV. SAN MARCOS, PARCELA 2","descript":null,"url":null,"phone":"","nameDistrict":"CHORRILLOS","nameCity":"LIMA","latitude":"-12.196992","longitude":"-77.010782","_l":[-77.010782,-12.196992]}},{"type":"Feature","geometry":{"coordinates":[-77.002929,-12.184198],"type":"Point"},"properties":{"name":"LA CAMPIÑA","address":"AV. GUARDIA CIVIL S/N MZ. E LT. 15 URBANIZACIÓN LA CAMPIÑA","descript":null,"url":null,"phone":"","nameDistrict":"CHORRILLOS","nameCity":"LIMA","latitude":"-12.184198","longitude":"-77.002929","_l":[-77.002929,-12.184198]}},{"type":"Feature","geometry":{"coordinates":[-77.050166,-11.939698],"type":"Point"},"properties":{"name":"AGENCIA COMAS","address":"AV. TÚPAC AMARU 3129-3131","descript":null,"url":null,"phone":"","nameDistrict":"COMAS","nameCity":"LIMA","latitude":"-11.939698","longitude":"-77.050166","_l":[-77.050166,-11.939698]}},{"type":"Feature","geometry":{"coordinates":[-77.055606,-11.998689],"type":"Point"},"properties":{"name":"HIPERMERCADO CERAMICO COMAS","address":"AV. TÚPAC AMARU 3181","descript":null,"url":null,"phone":"","nameDistrict":"COMAS","nameCity":"LIMA","latitude":"-11.998689","longitude":"-77.055606","_l":[-77.055606,-11.998689]}},{"type":"Feature","geometry":{"coordinates":[-77.050589,-11.94311],"type":"Point"},"properties":{"name":"AGENCIA COMAS","address":"AV. TÚPAC AMARU 1953-1955","descript":null,"url":null,"phone":"6133760","nameDistrict":"COMAS","nameCity":"LIMA","latitude":"-11.94311","longitude":"-77.050589","_l":[-77.050589,-11.94311]}},{"type":"Feature","geometry":{"coordinates":[-77.052309,-11.954755],"type":"Point"},"properties":{"name":"COMAS","address":"AV. TÚPAC AMARU 1175","descript":null,"url":null,"phone":"5373605","nameDistrict":"COMAS","nameCity":"LIMA","latitude":"-11.954755","longitude":"-77.052309","_l":[-77.052309,-11.954755]}},{"type":"Feature","geometry":{"coordinates":[-77.049958,-11.941143],"type":"Point"},"properties":{"name":"VICTOR ANDRES BELAUNDE","address":"CA. VÍCTOR ANDRÉS BELAUNDE ESTE 101, URB. POPULAR REPARTICIÓN","descript":null,"url":null,"phone":"5410088","nameDistrict":"COMAS","nameCity":"LIMA","latitude":"-11.941143","longitude":"-77.049958","_l":[-77.049958,-11.941143]}},{"type":"Feature","geometry":{"coordinates":[-77.059792,-11.932755],"type":"Point"},"properties":{"name":"COLLIQUE","address":"PANAMERICANA NORTE KM. 13.5 ENTRE LA AV. VICTORIA A. BELAUNDE Y CALLE GONZALEZ - INTERIOR","descript":null,"url":null,"phone":"","nameDistrict":"COMAS","nameCity":"LIMA","latitude":"-11.932755","longitude":"-77.059792","_l":[-77.059792,-11.932755]}},{"type":"Feature","geometry":{"coordinates":[-77.04037,-11.901031],"type":"Point"},"properties":{"name":"SAN FELIPE COMAS","address":"AV. UNIVERSITARIA 10583-10587 MZ. X LT. 3 SECTOR B, URB. SAN FELIPE","descript":null,"url":null,"phone":"5436200","nameDistrict":"COMAS","nameCity":"LIMA","latitude":"-11.901031","longitude":"-77.040370","_l":[-77.04037,-11.901031]}},{"type":"Feature","geometry":{"coordinates":[-77.05287,-11.956729],"type":"Point"},"properties":{"name":"TUPAC AMARU","address":"AV. TÚPAC AMARU 999","descript":null,"url":null,"phone":"5372353","nameDistrict":"COMAS","nameCity":"LIMA","latitude":"-11.956729","longitude":"-77.05287","_l":[-77.05287,-11.956729]}},{"type":"Feature","geometry":{"coordinates":[-77.052821,-11.938029],"type":"Point"},"properties":{"name":"BELAUNDE","address":"AV. VÍCTOR ANDRÉS BELAUNDE OESTE 413-415","descript":null,"url":null,"phone":"5365555","nameDistrict":"COMAS","nameCity":"LIMA","latitude":"-11.938029","longitude":"-77.052821","_l":[-77.052821,-11.938029]}},{"type":"Feature","geometry":{"coordinates":[-77.041132,-11.916358],"type":"Point"},"properties":{"name":"COLLIQUE","address":"AV. TÚPAC AMARU 5185","descript":null,"url":null,"phone":"5573728","nameDistrict":"COMAS","nameCity":"LIMA","latitude":"-11.916358","longitude":"-77.041132","_l":[-77.041132,-11.916358]}},{"type":"Feature","geometry":{"coordinates":[-77.059913,-11.942265],"type":"Point"},"properties":{"name":"URBANIZACIÓN SAN FELIPE COMAS","address":"AV. UNIVERSITARIA 6816 URB. SANTA LUZMILA","descript":null,"url":null,"phone":"5378143","nameDistrict":"COMAS","nameCity":"LIMA","latitude":"-11.942265","longitude":"-77.059913","_l":[-77.059913,-11.942265]}},{"type":"Feature","geometry":{"coordinates":[-77.040457,-11.901433],"type":"Point"},"properties":{"name":"SANTA LUZMILA","address":"AV. UNIVERSITARIA NORTE 206 URB. SAN FELIPE","descript":null,"url":null,"phone":"5513959","nameDistrict":"COMAS","nameCity":"LIMA","latitude":"-11.901433","longitude":"-77.040457","_l":[-77.040457,-11.901433]}},{"type":"Feature","geometry":{"coordinates":[-77.05005,-11.940313],"type":"Point"},"properties":{"name":"AG. COMAS","address":"AV. TÚPAC AMARU 6070 - 6074 MZ. I LOTE 21","descript":null,"url":null,"phone":"","nameDistrict":"COMAS","nameCity":"LIMA","latitude":"-11.940313","longitude":"-77.05005","_l":[-77.05005,-11.940313]}},{"type":"Feature","geometry":{"coordinates":[-77.050133,-11.947479],"type":"Point"},"properties":{"name":"AG. CARSA COMAS","address":"AV. TÚPAC AMARU 1119 - KM 11","descript":null,"url":null,"phone":"6122000 / 3408","nameDistrict":"COMAS","nameCity":"LIMA","latitude":"-11.947479","longitude":"-77.050133","_l":[-77.050133,-11.947479]}},{"type":"Feature","geometry":{"coordinates":[-77.053846,-11.957164],"type":"Point"},"properties":{"name":"TIENDA COMAS","address":"AV. TÚPAC AMARU 1023-1025 (ANTES 1027-1029) URB. HUAQUILLAY MZ. Q LT. 25-26","descript":null,"url":null,"phone":"2192138","nameDistrict":"COMAS","nameCity":"LIMA","latitude":"-11.957164","longitude":"-77.053846","_l":[-77.053846,-11.957164]}},{"type":"Feature","geometry":{"coordinates":[-77.045317,-11.931306],"type":"Point"},"properties":{"name":"MM COMAS","address":"AV. TÚPAC AMARU 3860 - URB. LA PASCANA","descript":null,"url":null,"phone":"2192158","nameDistrict":"COMAS","nameCity":"LIMA","latitude":"-11.931306","longitude":"-77.045317","_l":[-77.045317,-11.931306]}},{"type":"Feature","geometry":{"coordinates":[-77.051416,-11.939184],"type":"Point"},"properties":{"name":"BELAUNDE","address":"AV. VÍCTOR ANDRÉS BELAUNDE OESTE 239-241-243 MZ.R LT. 8","descript":null,"url":null,"phone":"2192198","nameDistrict":"COMAS","nameCity":"LIMA","latitude":"-11.939184","longitude":"-77.051416","_l":[-77.051416,-11.939184]}},{"type":"Feature","geometry":{"coordinates":[-77.045544,-11.931961],"type":"Point"},"properties":{"name":"COMAS","address":"AV. TÚPAC AMARU 3857-3861 - SAN AGUSTIN 1 ETAPA","descript":null,"url":null,"phone":"5138000 / 0801 - 0802","nameDistrict":"COMAS","nameCity":"LIMA","latitude":"-11.931961","longitude":"-77.045544","_l":[-77.045544,-11.931961]}},{"type":"Feature","geometry":{"coordinates":[-77.038383,-11.910955],"type":"Point"},"properties":{"name":"COLLIQUE","address":"URB. POPULAR SAN JUAN BAUTISTA - 1ERA ETAPA MZ. B LT. 12","descript":null,"url":null,"phone":"","nameDistrict":"COMAS","nameCity":"LIMA","latitude":"-11.910955","longitude":"-77.038383","_l":[-77.038383,-11.910955]}},{"type":"Feature","geometry":{"coordinates":[-77.044522,-11.932707],"type":"Point"},"properties":{"name":"COMAS","address":"AV. TÚPAC AMARU 3900","descript":null,"url":null,"phone":"6115700 / 8657","nameDistrict":"COMAS","nameCity":"LIMA","latitude":"-11.932707","longitude":"-77.044522","_l":[-77.044522,-11.932707]}},{"type":"Feature","geometry":{"coordinates":[-77.05295,-11.956529],"type":"Point"},"properties":{"name":"COMAS","address":"AV. TÚPAC AMARU 1009","descript":null,"url":null,"phone":"5371009","nameDistrict":"COMAS","nameCity":"LIMA","latitude":"-11.956529","longitude":"-77.052950","_l":[-77.05295,-11.956529]}},{"type":"Feature","geometry":{"coordinates":[-77.053143,-11.937583],"type":"Point"},"properties":{"name":"BELAUNDE","address":"AV. VÍCTOR ANDRÉS BELAUNDE OESTE 467","descript":null,"url":null,"phone":"5374040","nameDistrict":"COMAS","nameCity":"LIMA","latitude":"-11.937583","longitude":"-77.053143","_l":[-77.053143,-11.937583]}},{"type":"Feature","geometry":{"coordinates":[-77.050788,-11.950977],"type":"Point"},"properties":{"name":"COMAS","address":"AVENIDA TÚPAC AMARU 5057 - URB. HUAQUILLAY","descript":null,"url":null,"phone":"5360755","nameDistrict":"COMAS","nameCity":"LIMA","latitude":"-11.950977","longitude":"-77.050788","_l":[-77.050788,-11.950977]}},{"type":"Feature","geometry":{"coordinates":[-77.049415,-11.949676],"type":"Point"},"properties":{"name":"COMAS","address":"AVENIDA TÚPAC AMARU 1797","descript":null,"url":null,"phone":"5369899","nameDistrict":"COMAS","nameCity":"LIMA","latitude":"-11.949676","longitude":"-77.049415","_l":[-77.049415,-11.949676]}},{"type":"Feature","geometry":{"coordinates":[-77.056872,-11.967529],"type":"Point"},"properties":{"name":"COMAS","address":"AVENIDA TÚPAC AMARU 347 - KM. 8.5 URBANIZACIÓN CARABAYLLO","descript":null,"url":null,"phone":"5258529","nameDistrict":"COMAS","nameCity":"LIMA","latitude":"-11.967529","longitude":"-77.056872","_l":[-77.056872,-11.967529]}},{"type":"Feature","geometry":{"coordinates":[-77.057275,-11.910075],"type":"Point"},"properties":{"name":"AGENCIA MAKRO COMAS","address":"AV. CHACRA CERRO S/N LOTE 155, LOCAL N° 8","descript":null,"url":null,"phone":"613-3000/Anexo 4850","nameDistrict":"COMAS","nameCity":"LIMA","latitude":"-11.910075","longitude":"-77.057275","_l":[-77.057275,-11.910075]}},{"type":"Feature","geometry":{"coordinates":[-77.059513,-11.940386],"type":"Point"},"properties":{"name":"EL RETABLO","address":"AV. UNIVERSITARIA N° 10583-10587, MZ H LT 3 - SECTOR B - URB. SAN FELIPE","descript":null,"url":null,"phone":"","nameDistrict":"COMAS","nameCity":"LIMA","latitude":"-11.940386","longitude":"-77.059513","_l":[-77.059513,-11.940386]}},{"type":"Feature","geometry":{"coordinates":[-76.999943,-12.047466],"type":"Point"},"properties":{"name":"AGENCIA EL AGUSTINO","address":"AV. RIVA AGÜERO 1442 URB. EL POPULAR","descript":null,"url":null,"phone":"","nameDistrict":"EL AGUSTINO","nameCity":"LIMA","latitude":"-12.047466","longitude":"-76.999943","_l":[-76.999943,-12.047466]}},{"type":"Feature","geometry":{"coordinates":[-76.961492,-12.053328],"type":"Point"},"properties":{"name":"AGENCIA NICOLAS AYLLON","address":"AV. NICOLÁS AYLLÓN 539","descript":null,"url":null,"phone":"","nameDistrict":"EL AGUSTINO","nameCity":"LIMA","latitude":"-12.053328","longitude":"-76.961492","_l":[-76.961492,-12.053328]}},{"type":"Feature","geometry":{"coordinates":[-77.000528,-12.047838],"type":"Point"},"properties":{"name":"EL AGUSTINO","address":"AV. JOSÉ RIVA AGÜERO 1400-1404-1406","descript":null,"url":null,"phone":"6223691","nameDistrict":"EL AGUSTINO","nameCity":"LIMA","latitude":"-12.047838","longitude":"-77.000528","_l":[-77.000528,-12.047838]}},{"type":"Feature","geometry":{"coordinates":[-77.001113,-12.049015],"type":"Point"},"properties":{"name":"OFICINA EL AGUSTINO","address":"AV. RIVA AGÜERO 1314","descript":null,"url":null,"phone":"3274224","nameDistrict":"EL AGUSTINO","nameCity":"LIMA","latitude":"-12.049015","longitude":"-77.001113","_l":[-77.001113,-12.049015]}},{"type":"Feature","geometry":{"coordinates":[-77.004203,-12.041518],"type":"Point"},"properties":{"name":"EL AGUSTINO","address":"JIRÓN ANCASH 2151 (BOULEVARD LOS PARQUES DEL AGUSTINO)","descript":null,"url":null,"phone":"","nameDistrict":"EL AGUSTINO","nameCity":"LIMA","latitude":"-12.041518","longitude":"-77.004203","_l":[-77.004203,-12.041518]}},{"type":"Feature","geometry":{"coordinates":[-77.001671,-12.050012],"type":"Point"},"properties":{"name":"EL AGUSTINO","address":"AV. RIVAGÜERO 1284-1296 ESQ. AV. HOYLE PALACIOS 108-110, A. H. PROVIVIENDA, ZONA VI","descript":null,"url":null,"phone":"2192208","nameDistrict":"EL AGUSTINO","nameCity":"LIMA","latitude":"-12.050012","longitude":"-77.001671","_l":[-77.001671,-12.050012]}},{"type":"Feature","geometry":{"coordinates":[-77.00508,-12.055981],"type":"Point"},"properties":{"name":"EL AGUSTINO","address":"AV. RIVA AGÜERO 1404 MZ. C LT. 27","descript":null,"url":null,"phone":"5138006","nameDistrict":"EL AGUSTINO","nameCity":"LIMA","latitude":"-12.055981","longitude":"-77.00508","_l":[-77.00508,-12.055981]}},{"type":"Feature","geometry":{"coordinates":[-76.999365,-12.040684],"type":"Point"},"properties":{"name":"CCFF HT LA POLVORA","address":"JR. ANCASH 2479","descript":null,"url":null,"phone":"6180000 / 5423","nameDistrict":"EL AGUSTINO","nameCity":"LIMA","latitude":"-12.040684","longitude":"-76.999365","_l":[-76.999365,-12.040684]}},{"type":"Feature","geometry":{"coordinates":[-76.99958,-12.046361],"type":"Point"},"properties":{"name":"EL AGUSTINO","address":"AVENIDA RIVA AGÜERO 1358","descript":null,"url":null,"phone":"3273530","nameDistrict":"EL AGUSTINO","nameCity":"LIMA","latitude":"-12.046361","longitude":"-76.99958","_l":[-76.99958,-12.046361]}},{"type":"Feature","geometry":{"coordinates":[-77.055211,-12.000259],"type":"Point"},"properties":{"name":"AGENCIA INDEPENDENCIA","address":"AV. GERARDO UNGER 3209","descript":null,"url":null,"phone":"","nameDistrict":"INDEPENDENCIA","nameCity":"LIMA","latitude":"-12.000259","longitude":"-77.055211","_l":[-77.055211,-12.000259]}},{"type":"Feature","geometry":{"coordinates":[-77.059189,-12.007053],"type":"Point"},"properties":{"name":"AGENCIA PLAZA NORTE","address":"C.C. PLAZA NORTE CON AV. ALFREDO MENDIOLA 1400 TIENDA CF5","descript":null,"url":null,"phone":"6133896","nameDistrict":"INDEPENDENCIA","nameCity":"LIMA","latitude":"-12.007053","longitude":"-77.059189","_l":[-77.059189,-12.007053]}},{"type":"Feature","geometry":{"coordinates":[-77.062389,-11.995071],"type":"Point"},"properties":{"name":"MEGA PLAZA","address":"AV. ALFREDO MENDIOLA 3698 C.C. CONO NORTE TDAS. 2 Y 3","descript":null,"url":null,"phone":"5235054","nameDistrict":"INDEPENDENCIA","nameCity":"LIMA","latitude":"-11.995071","longitude":"-77.062389","_l":[-77.062389,-11.995071]}},{"type":"Feature","geometry":{"coordinates":[-77.0593,-11.994501],"type":"Point"},"properties":{"name":"MEGA PLAZA 2","address":"C.C. MEGAPLAZA, AV. INDUSTRIAL 3515-3517, LOCALES 73-74","descript":null,"url":null,"phone":"4851100","nameDistrict":"INDEPENDENCIA","nameCity":"LIMA","latitude":"-11.994501","longitude":"-77.0593","_l":[-77.0593,-11.994501]}},{"type":"Feature","geometry":{"coordinates":[-77.062432,-11.990046],"type":"Point"},"properties":{"name":"MULTIPLAZA","address":"AV. CARLOS IZAGUIRRE 275","descript":null,"url":null,"phone":"2502250","nameDistrict":"INDEPENDENCIA","nameCity":"LIMA","latitude":"-11.990046","longitude":"-77.062432","_l":[-77.062432,-11.990046]}},{"type":"Feature","geometry":{"coordinates":[-77.060721,-12.006647],"type":"Point"},"properties":{"name":"PLAZA NORTE","address":"CRUCE AV. TOMÁS VALLE CON PANAMERICANA NORTE, LOCAL CF-06","descript":null,"url":null,"phone":"5332442","nameDistrict":"INDEPENDENCIA","nameCity":"LIMA","latitude":"-12.006647","longitude":"-77.060721","_l":[-77.060721,-12.006647]}},{"type":"Feature","geometry":{"coordinates":[-77.062434,-11.994576],"type":"Point"},"properties":{"name":"MEGA PLAZA","address":"AV. ALFREDO MENDIOLA 3698","descript":null,"url":null,"phone":"5235081","nameDistrict":"INDEPENDENCIA","nameCity":"LIMA","latitude":"-11.994576","longitude":"-77.062434","_l":[-77.062434,-11.994576]}},{"type":"Feature","geometry":{"coordinates":[-77.061978,-11.989906],"type":"Point"},"properties":{"name":"AGENCIA C.C. MULTIPLAZA","address":"AV. CARLOS ALBERTO IZAGUIRRE 271","descript":null,"url":null,"phone":"5226604","nameDistrict":"INDEPENDENCIA","nameCity":"LIMA","latitude":"-11.989906","longitude":"-77.061978","_l":[-77.061978,-11.989906]}},{"type":"Feature","geometry":{"coordinates":[-77.05837,-11.981099],"type":"Point"},"properties":{"name":"LOS ALISOS","address":"AV. CONTISUYO 508-510-512 Y CALLE TÚPAC INCA 100-100A, URB. POPULAR TAHUANTINSUYO PARCELA \"A\"","descript":null,"url":null,"phone":"5261324","nameDistrict":"INDEPENDENCIA","nameCity":"LIMA","latitude":"-11.981099","longitude":"-77.05837","_l":[-77.05837,-11.981099]}},{"type":"Feature","geometry":{"coordinates":[-77.059998,-12.008714],"type":"Point"},"properties":{"name":"PLAZA LIMA NORTE","address":"ESQ. AVENIDA TOMÁS VALLE Y PANAMERICANA NORTE","descript":null,"url":null,"phone":"5333219","nameDistrict":"INDEPENDENCIA","nameCity":"LIMA","latitude":"-12.008714","longitude":"-77.059998","_l":[-77.059998,-12.008714]}},{"type":"Feature","geometry":{"coordinates":[-77.05939,-11.994177],"type":"Point"},"properties":{"name":"MEGA PLAZA II","address":"AV. INDUSTRIAL 3515-3517, URB. INDUSTRIAL PANAMERICANA NORTE","descript":null,"url":null,"phone":"5393286","nameDistrict":"INDEPENDENCIA","nameCity":"LIMA","latitude":"-11.994177","longitude":"-77.05939","_l":[-77.05939,-11.994177]}},{"type":"Feature","geometry":{"coordinates":[-77.060177,-12.006875],"type":"Point"},"properties":{"name":"CCFF PLAZA LIMA NORTE","address":"AV. ALFREDO MENDIOLA 1400 PANAMERICANA NORTE CENTRO COMERCIAL PLAZA LIMA NORTE","descript":null,"url":null,"phone":"","nameDistrict":"INDEPENDENCIA","nameCity":"LIMA","latitude":"-12.006875","longitude":"-77.060177","_l":[-77.060177,-12.006875]}},{"type":"Feature","geometry":{"coordinates":[-77.059167,-11.993798],"type":"Point"},"properties":{"name":"CCFF SF MEGA PLAZA","address":"AV. INDUSTRIAL 3515-3517","descript":null,"url":null,"phone":"6180000 / 2701-4374","nameDistrict":"INDEPENDENCIA","nameCity":"LIMA","latitude":"-11.993798","longitude":"-77.059167","_l":[-77.059167,-11.993798]}},{"type":"Feature","geometry":{"coordinates":[-77.060077,-11.994307],"type":"Point"},"properties":{"name":"AGENCIA MEGAPLAZA","address":"AV. INDUSTRIAL 3515-3517 INT 61-62 - C.C. MEGAPLAZA, URB. INDUSTRIAL PANAMERICANA NORTE","descript":null,"url":null,"phone":"6163000","nameDistrict":"INDEPENDENCIA","nameCity":"LIMA","latitude":"-11.994307","longitude":"-77.060077","_l":[-77.060077,-11.994307]}},{"type":"Feature","geometry":{"coordinates":[-77.059081,-11.994328],"type":"Point"},"properties":{"name":"TIENDA INTERBANK MEGA PLAZA","address":"AV. ALFREDO MENDIOLA 3698","descript":null,"url":null,"phone":"5235018","nameDistrict":"INDEPENDENCIA","nameCity":"LIMA","latitude":"-11.994328","longitude":"-77.059081","_l":[-77.059081,-11.994328]}},{"type":"Feature","geometry":{"coordinates":[-77.062898,-11.990427],"type":"Point"},"properties":{"name":"TIENDA DE CONVENIENCIA ROYAL PLAZA","address":"AV. CARLOS IZAGUIRRE 287-289, TIENDA 1","descript":null,"url":null,"phone":"2192147","nameDistrict":"INDEPENDENCIA","nameCity":"LIMA","latitude":"-11.990427","longitude":"-77.062898","_l":[-77.062898,-11.990427]}},{"type":"Feature","geometry":{"coordinates":[-77.059076,-11.99431],"type":"Point"},"properties":{"name":"MEGA PLAZA II","address":"AV. INDUSTRIAL 3515-3517 URB. HABILITACION INDUSTRIAL VALLE PIEDRA LIZA","descript":null,"url":null,"phone":"2192178","nameDistrict":"INDEPENDENCIA","nameCity":"LIMA","latitude":"-11.994310","longitude":"-77.059076","_l":[-77.059076,-11.99431]}},{"type":"Feature","geometry":{"coordinates":[-77.058341,-11.988923],"type":"Point"},"properties":{"name":"INDEPENDENCIA","address":"AV. CARLOS IZAGUIRRE 124","descript":null,"url":null,"phone":"2192000 / 609501","nameDistrict":"INDEPENDENCIA","nameCity":"LIMA","latitude":"-11.988923","longitude":"-77.058341","_l":[-77.058341,-11.988923]}},{"type":"Feature","geometry":{"coordinates":[-77.064542,-11.99097],"type":"Point"},"properties":{"name":"MENDIOLA LOS OLIVOS I","address":"AV. ALFREDO MENDIOLA 3779-3783","descript":null,"url":null,"phone":"2192000 / 637001","nameDistrict":"INDEPENDENCIA","nameCity":"LIMA","latitude":"-11.990970","longitude":"-77.064542","_l":[-77.064542,-11.99097]}},{"type":"Feature","geometry":{"coordinates":[-77.058749,-11.98194],"type":"Point"},"properties":{"name":"INDEPENDENCIA","address":"AV. TÚPAC AMARU 7197 URB. MESA REDONDA","descript":null,"url":null,"phone":"5138000 / 2201 - 2202","nameDistrict":"INDEPENDENCIA","nameCity":"LIMA","latitude":"-11.98194","longitude":"-77.058749","_l":[-77.058749,-11.98194]}},{"type":"Feature","geometry":{"coordinates":[-77.062794,-11.989706],"type":"Point"},"properties":{"name":"MULTICENTER INDEPENDENCIA","address":"AV. CARLOS IZAGUIRRE 275","descript":null,"url":null,"phone":"5138000 / 2161 - 2162","nameDistrict":"INDEPENDENCIA","nameCity":"LIMA","latitude":"-11.989706","longitude":"-77.062794","_l":[-77.062794,-11.989706]}},{"type":"Feature","geometry":{"coordinates":[-77.061973,-11.99542],"type":"Point"},"properties":{"name":"TIENDA DEPARTAMENTAL RIPLEY LOS OLIVOS","address":"AV. ALFREDO MENDIOLA 3698 C.C. MEGA PLAZA","descript":null,"url":null,"phone":"6115700 / 8873","nameDistrict":"INDEPENDENCIA","nameCity":"LIMA","latitude":"-11.995420","longitude":"-77.061973","_l":[-77.061973,-11.99542]}},{"type":"Feature","geometry":{"coordinates":[-77.059205,-12.00737],"type":"Point"},"properties":{"name":"TIENDA DEPARTAMENTAL RIPLEY PLAZA NORTE","address":"AV. ALFREDO MENDIOLA 1400 C.C. PLAZA NORTE ESQ. PANAMERICANA NORTE C/TOMÁS VALLE","descript":null,"url":null,"phone":"6115700 /","nameDistrict":"INDEPENDENCIA","nameCity":"LIMA","latitude":"-12.007370","longitude":"-77.059205","_l":[-77.059205,-12.00737]}},{"type":"Feature","geometry":{"coordinates":[-77.062761,-11.9881],"type":"Point"},"properties":{"name":"MEGA PLAZA 1","address":"AV. ALFREDO MENDIOLA 3698 LOCALES 10 Y 11 - VALLE DE LA PIEDRA LIZA C.C. MEGA PLAZA CONO NORTE","descript":null,"url":null,"phone":"5235057","nameDistrict":"INDEPENDENCIA","nameCity":"LIMA","latitude":"-11.988100","longitude":"-77.062761","_l":[-77.062761,-11.9881]}},{"type":"Feature","geometry":{"coordinates":[-77.064177,-11.988194],"type":"Point"},"properties":{"name":"MEGA PLAZA 2","address":"AV. INDUSTRIAL 3515-3517 - LOCALES 63 Y 64 URB. HABILITACIÓN INDUSTRIAL, PANAMERICANA NORTE MZ. F, ","descript":null,"url":null,"phone":"6160045","nameDistrict":"INDEPENDENCIA","nameCity":"LIMA","latitude":"-11.988194","longitude":"-77.064177","_l":[-77.064177,-11.988194]}},{"type":"Feature","geometry":{"coordinates":[-77.059876,-12.006707],"type":"Point"},"properties":{"name":"MACMYPE PLAZA NORTE","address":"AVENIDA ALFREDO MENDIOLA 1400","descript":null,"url":null,"phone":"4260576","nameDistrict":"INDEPENDENCIA","nameCity":"LIMA","latitude":"-12.006707","longitude":"-77.059876","_l":[-77.059876,-12.006707]}},{"type":"Feature","geometry":{"coordinates":[-77.06097,-11.989401],"type":"Point"},"properties":{"name":"MULTIPLAZA LIMA NORTE","address":"AVENIDA CARLOS IZAGUIRRE 271 LOCAL 6 MZ. C LT. 22 PANA. NORTE","descript":null,"url":null,"phone":"5215219","nameDistrict":"INDEPENDENCIA","nameCity":"LIMA","latitude":"-11.989401","longitude":"-77.06097","_l":[-77.06097,-11.989401]}},{"type":"Feature","geometry":{"coordinates":[-77.062933,-11.995772],"type":"Point"},"properties":{"name":"INDEPENDENCIA","address":"ESQUINA AVENIDAS PANAMERICANA KM. 15.20 CON EL PACÍFICO","descript":null,"url":null,"phone":"5238646","nameDistrict":"INDEPENDENCIA","nameCity":"LIMA","latitude":"-11.995772","longitude":"-77.062933","_l":[-77.062933,-11.995772]}},{"type":"Feature","geometry":{"coordinates":[-77.061818,-11.990356],"type":"Point"},"properties":{"name":"RENIEC INDEPENDENCIA","address":"CALLE LOS ANDES 486","descript":null,"url":null,"phone":"5396604","nameDistrict":"INDEPENDENCIA","nameCity":"LIMA","latitude":"-11.990356","longitude":"-77.061818","_l":[-77.061818,-11.990356]}},{"type":"Feature","geometry":{"coordinates":[-77.058127,-11.988299],"type":"Point"},"properties":{"name":"PODER JUDICIAL DEL CONO NORTE","address":"AVENIDA CARLOS IZAGUIRRE 176","descript":null,"url":null,"phone":"4868080","nameDistrict":"INDEPENDENCIA","nameCity":"LIMA","latitude":"-11.988299","longitude":"-77.058127","_l":[-77.058127,-11.988299]}},{"type":"Feature","geometry":{"coordinates":[-77.059341,-11.99447],"type":"Point"},"properties":{"name":"B.E.C LIMA NORTE","address":"AV. INDUSTRIAL N. 3515 -3517 - LOTES 73-74","descript":null,"url":null,"phone":"","nameDistrict":"INDEPENDENCIA","nameCity":"LIMA","latitude":"-11.99447","longitude":"-77.059341","_l":[-77.059341,-11.99447]}},{"type":"Feature","geometry":{"coordinates":[-77.049093,-12.071279],"type":"Point"},"properties":{"name":"AGENCIA JESÚS MARÍA","address":"AV. GARZÓN 1319","descript":null,"url":null,"phone":"","nameDistrict":"JESUS MARIA","nameCity":"LIMA","latitude":"-12.071279","longitude":"-77.049093","_l":[-77.049093,-12.071279]}},{"type":"Feature","geometry":{"coordinates":[-77.054634,-12.088307],"type":"Point"},"properties":{"name":"AGENCIA SAN FELIPE","address":"C.C. SAN FELIPE EDIFICIO 67B TIENDA 10","descript":null,"url":null,"phone":"6133811","nameDistrict":"JESUS MARIA","nameCity":"LIMA","latitude":"-12.088307","longitude":"-77.054634","_l":[-77.054634,-12.088307]}},{"type":"Feature","geometry":{"coordinates":[-77.044411,-12.066909],"type":"Point"},"properties":{"name":"AGENCIA JESUS MARÍA","address":"AV. ARNALDO MÁRQUEZ 1412","descript":null,"url":null,"phone":"6133928","nameDistrict":"JESUS MARIA","nameCity":"LIMA","latitude":"-12.066909","longitude":"-77.044411","_l":[-77.044411,-12.066909]}},{"type":"Feature","geometry":{"coordinates":[-77.010512,-12.121152],"type":"Point"},"properties":{"name":"AURORA","address":"CALLE ARIAS SCHEREIBER 160","descript":null,"url":null,"phone":"","nameDistrict":"MIRAFLORES","nameCity":"AREQUIPA","latitude":"-12.121152","longitude":"-77.010512","_l":[-77.010512,-12.121152]}},{"type":"Feature","geometry":{"coordinates":[-76.989505,-12.112887],"type":"Point"},"properties":{"name":"CHACARILLA","address":"CALLE MONTERREY 188 C.C. CAMINOS DEL INCA","descript":null,"url":null,"phone":"","nameDistrict":"SANTIAGO DE SURCO","nameCity":"LIMA","latitude":"-12.112887","longitude":"-76.989505","_l":[-76.989505,-12.112887]}},{"type":"Feature","geometry":{"coordinates":[-77.053893,-12.087406],"type":"Point"},"properties":{"name":"FAUCETT","address":"AV. ELMER FAUCETT 525, SAN MIGUEL","descript":null,"url":null,"phone":"4630343","nameDistrict":"JESUS MARIA","nameCity":"LIMA","latitude":"-12.087406","longitude":"-77.053893","_l":[-77.053893,-12.087406]}},{"type":"Feature","geometry":{"coordinates":[-77.048945,-12.073966],"type":"Point"},"properties":{"name":"JESUS MARIA","address":"AV. REPÚBLICA DOMINICANA 355-359","descript":null,"url":null,"phone":"4246162","nameDistrict":"JESUS MARIA","nameCity":"LIMA","latitude":"-12.073966","longitude":"-77.048945","_l":[-77.048945,-12.073966]}},{"type":"Feature","geometry":{"coordinates":[-77.037307,-12.078792],"type":"Point"},"properties":{"name":"ESSALUD","address":"AV. ARENALES 1302, OF. 150 HOSPITAL REBAGLIATI","descript":null,"url":null,"phone":"4719090","nameDistrict":"JESUS MARIA","nameCity":"LIMA","latitude":"-12.078792","longitude":"-77.037307","_l":[-77.037307,-12.078792]}},{"type":"Feature","geometry":{"coordinates":[-77.05399,-12.087892],"type":"Point"},"properties":{"name":"URBANIZACION SAN FELIPE","address":"C.C. DEL CONJUNTO RESIDENCIAL SAN FELIPE TDA 25","descript":null,"url":null,"phone":"4630636","nameDistrict":"JESUS MARIA","nameCity":"LIMA","latitude":"-12.087892","longitude":"-77.053990","_l":[-77.05399,-12.087892]}},{"type":"Feature","geometry":{"coordinates":[-77.038316,-12.073761],"type":"Point"},"properties":{"name":"CARRILLO - MILLER","address":"CALLE MARISCAL MILLER 914","descript":null,"url":null,"phone":"4335471","nameDistrict":"JESUS MARIA","nameCity":"LIMA","latitude":"-12.073761","longitude":"-77.038316","_l":[-77.038316,-12.073761]}},{"type":"Feature","geometry":{"coordinates":[-77.050681,-12.074763],"type":"Point"},"properties":{"name":"ARNALDO MARQUEZ","address":"AV. ARNALDO MÁRQUEZ 1418-1420","descript":null,"url":null,"phone":"4235443","nameDistrict":"JESUS MARIA","nameCity":"LIMA","latitude":"-12.074763","longitude":"-77.050681","_l":[-77.050681,-12.074763]}},{"type":"Feature","geometry":{"coordinates":[-77.051442,-12.083789],"type":"Point"},"properties":{"name":"PRIMAX HUIRACOCHA","address":"AV. GREGORIO ESCOBEDO 2184 ESQUINA CON JR. HUIRACOCHA","descript":null,"url":null,"phone":"4621923","nameDistrict":"JESUS MARIA","nameCity":"LIMA","latitude":"-12.083789","longitude":"-77.051442","_l":[-77.051442,-12.083789]}},{"type":"Feature","geometry":{"coordinates":[-77.048524,-12.073755],"type":"Point"},"properties":{"name":"PARQUE SAN JOSÉ","address":"CALLE HORACIO URTEAGA 1252-1256","descript":null,"url":null,"phone":"3303568","nameDistrict":"JESUS MARIA","nameCity":"LIMA","latitude":"-12.073755","longitude":"-77.048524","_l":[-77.048524,-12.073755]}},{"type":"Feature","geometry":{"coordinates":[-77.037581,-12.072161],"type":"Point"},"properties":{"name":"PABLO BERMUDEZ","address":"AV. ARENALES 760","descript":null,"url":null,"phone":"3302337","nameDistrict":"JESUS MARIA","nameCity":"LIMA","latitude":"-12.072161","longitude":"-77.037581","_l":[-77.037581,-12.072161]}},{"type":"Feature","geometry":{"coordinates":[-77.053707,-12.087478],"type":"Point"},"properties":{"name":"AG. SAN FELIPE","address":"C.C. SAN FELIPE TDA. 21-23 RESIDENCIAL SAN FELIPE","descript":null,"url":null,"phone":"4602219","nameDistrict":"JESUS MARIA","nameCity":"LIMA","latitude":"-12.087478","longitude":"-77.053707","_l":[-77.053707,-12.087478]}},{"type":"Feature","geometry":{"coordinates":[-77.050982,-12.074784],"type":"Point"},"properties":{"name":"AG. JESÚS MARÍA","address":"AV. ARNALDO MÁRQUEZ 1394-1398","descript":null,"url":null,"phone":"4244750","nameDistrict":"JESUS MARIA","nameCity":"LIMA","latitude":"-12.074784","longitude":"-77.050982","_l":[-77.050982,-12.074784]}},{"type":"Feature","geometry":{"coordinates":[-77.055552,-12.088192],"type":"Point"},"properties":{"name":"AG. PERUANO JAPONES","address":"AV. GREGORIO ESCOBEDO 803, CENTRO CULTURAL PERUANO JAPONÉS","descript":null,"url":null,"phone":"2610321","nameDistrict":"JESUS MARIA","nameCity":"LIMA","latitude":"-12.088192","longitude":"-77.055552","_l":[-77.055552,-12.088192]}},{"type":"Feature","geometry":{"coordinates":[-77.055412,-12.087247],"type":"Point"},"properties":{"name":"TIENDA SAN FELIPE","address":"C.C. SAN FELIPE TDA. 109-111","descript":null,"url":null,"phone":"4630999","nameDistrict":"JESUS MARIA","nameCity":"LIMA","latitude":"-12.087247","longitude":"-77.055412","_l":[-77.055412,-12.087247]}},{"type":"Feature","geometry":{"coordinates":[-77.050112,-12.073808],"type":"Point"},"properties":{"name":"TIENDA ARNALDO MARQUEZ","address":"AV. ARNALDO MÁRQUEZ 1400","descript":null,"url":null,"phone":"4243395","nameDistrict":"JESUS MARIA","nameCity":"LIMA","latitude":"-12.073808","longitude":"-77.050112","_l":[-77.050112,-12.073808]}},{"type":"Feature","geometry":{"coordinates":[-77.053368,-12.075198],"type":"Point"},"properties":{"name":"TIENDA INTERBANK EN PLAZA VEA BRASIL","address":"AV. BRASIL CDRA. 15","descript":null,"url":null,"phone":"2192125","nameDistrict":"JESUS MARIA","nameCity":"LIMA","latitude":"-12.075198","longitude":"-77.053368","_l":[-77.053368,-12.075198]}},{"type":"Feature","geometry":{"coordinates":[-77.051228,-12.074217],"type":"Point"},"properties":{"name":"JESUS MARIA 1","address":"AV. GRAL. GARZÓN 1431","descript":null,"url":null,"phone":"4242727","nameDistrict":"JESUS MARIA","nameCity":"LIMA","latitude":"-12.074217","longitude":"-77.051228","_l":[-77.051228,-12.074217]}},{"type":"Feature","geometry":{"coordinates":[-77.053942,-12.087425],"type":"Point"},"properties":{"name":"SAN FELIPE","address":"C.C. SAN FELIPE TDAS. 17-18-19-34-35","descript":null,"url":null,"phone":"4632142","nameDistrict":"JESUS MARIA","nameCity":"LIMA","latitude":"-12.087425","longitude":"-77.053942","_l":[-77.053942,-12.087425]}},{"type":"Feature","geometry":{"coordinates":[-77.037795,-12.072601],"type":"Point"},"properties":{"name":"PABLO BERMUDEZ","address":"CA. PABLO BERMÚDEZ 239","descript":null,"url":null,"phone":"4335780","nameDistrict":"JESUS MARIA","nameCity":"LIMA","latitude":"-12.072601","longitude":"-77.037795","_l":[-77.037795,-12.072601]}},{"type":"Feature","geometry":{"coordinates":[-77.048733,-12.08187],"type":"Point"},"properties":{"name":"ESPECIAL UNIVERSIDAD DEL PACIFICO","address":"JR. SÁNCHEZ CERRO 2141","descript":null,"url":null,"phone":"4715554","nameDistrict":"JESUS MARIA","nameCity":"LIMA","latitude":"-12.081870","longitude":"-77.048733","_l":[-77.048733,-12.08187]}},{"type":"Feature","geometry":{"coordinates":[-77.050423,-12.072979],"type":"Point"},"properties":{"name":"JESUS MARIA 2","address":"AV. REPÚBLICA DOMINICANA 250","descript":null,"url":null,"phone":"6160018","nameDistrict":"JESUS MARIA","nameCity":"LIMA","latitude":"-12.072979","longitude":"-77.050423","_l":[-77.050423,-12.072979]}},{"type":"Feature","geometry":{"coordinates":[-77.03772,-12.065677],"type":"Point"},"properties":{"name":"ARENALES","address":"AV. ARENALES 490","descript":null,"url":null,"phone":"2116000 / 5485","nameDistrict":"JESUS MARIA","nameCity":"LIMA","latitude":"-12.065677","longitude":"-77.037720","_l":[-77.03772,-12.065677]}},{"type":"Feature","geometry":{"coordinates":[-77.037334,-12.071217],"type":"Point"},"properties":{"name":"ARENALES","address":"AV. ARENALES 784 URB. SANTA BEATRIZ","descript":null,"url":null,"phone":"2192182","nameDistrict":"JESUS MARIA","nameCity":"LIMA","latitude":"-12.071217","longitude":"-77.037334","_l":[-77.037334,-12.071217]}},{"type":"Feature","geometry":{"coordinates":[-77.04845,-12.073315],"type":"Point"},